{
"type": "FeatureCollection",
"crs": { "type": "name", "properties": { "name": "urn:ogc:def:crs:OGC:1.3:CRS84" } },
                                                                                
"features": [
{ "type": "Feature", "properties": { "CVE_ENT": "02", "CVE_MUN": "001", "CVE_AGEB": "621-8", "CVE_LOC": "0357", "NOM_LOC": "Comunidad Belén", "OID": 94808 }, "geometry": { "type": "Point", "coordinates": [ -116.495555559997598, 32.184444440292154 ] } },
{ "type": "Feature", "properties": { "CVE_ENT": "02", "CVE_MUN": "001", "CVE_AGEB": "621-8", "CVE_LOC": "0990", "NOM_LOC": "La Alfalfa", "OID": 94809 }, "geometry": { "type": "Point", "coordinates": [ -116.503611109997607, 32.111111110291397 ] } },
{ "type": "Feature", "properties": { "CVE_ENT": "02", "CVE_MUN": "001", "CVE_AGEB": "621-8", "CVE_LOC": "1015", "NOM_LOC": "Emiliano Zapata", "OID": 94810 }, "geometry": { "type": "Point", "coordinates": [ -116.515555559997594, 32.139166670291715 ] } },
{ "type": "Feature", "properties": { "CVE_ENT": "02", "CVE_MUN": "001", "CVE_AGEB": "621-8", "CVE_LOC": "1101", "NOM_LOC": "Tepeyac", "OID": 94811 }, "geometry": { "type": "Point", "coordinates": [ -116.50777777999761, 32.115833330291437 ] } },
{ "type": "Feature", "properties": { "CVE_ENT": "02", "CVE_MUN": "001", "CVE_AGEB": "621-8", "CVE_LOC": "1196", "NOM_LOC": "Las Bellotas", "OID": 94812 }, "geometry": { "type": "Point", "coordinates": [ -116.475277779997612, 32.121666670291525 ] } },
{ "type": "Feature", "properties": { "CVE_ENT": "02", "CVE_MUN": "001", "CVE_AGEB": "621-8", "CVE_LOC": "1266", "NOM_LOC": "San Antonio Necua (Cañada de los Encinos)", "OID": 94813 }, "geometry": { "type": "Point", "coordinates": [ -116.498611109997611, 32.103888890291302 ] } },
{ "type": "Feature", "properties": { "CVE_ENT": "02", "CVE_MUN": "001", "CVE_AGEB": "621-8", "CVE_LOC": "2427", "NOM_LOC": "Viña Alegre", "OID": 94814 }, "geometry": { "type": "Point", "coordinates": [ -116.498333329997607, 32.113611110291423 ] } },
{ "type": "Feature", "properties": { "CVE_ENT": "02", "CVE_MUN": "001", "CVE_AGEB": "621-8", "CVE_LOC": "4893", "NOM_LOC": "Rancho Ole", "OID": 94815 }, "geometry": { "type": "Point", "coordinates": [ -116.506666669997614, 32.116388890291454 ] } },
{ "type": "Feature", "properties": { "CVE_ENT": "02", "CVE_MUN": "001", "CVE_AGEB": "622-2", "CVE_LOC": "0523", "NOM_LOC": "Ignacio Zaragoza", "OID": 94816 }, "geometry": { "type": "Point", "coordinates": [ -116.485555559997593, 32.195000000292275 ] } },
{ "type": "Feature", "properties": { "CVE_ENT": "02", "CVE_MUN": "001", "CVE_AGEB": "622-2", "CVE_LOC": "0769", "NOM_LOC": "San Marcos", "OID": 94817 }, "geometry": { "type": "Point", "coordinates": [ -116.443611109997605, 32.141388890291722 ] } },
{ "type": "Feature", "properties": { "CVE_ENT": "02", "CVE_MUN": "001", "CVE_AGEB": "622-2", "CVE_LOC": "4829", "NOM_LOC": "El Palomar", "OID": 94818 }, "geometry": { "type": "Point", "coordinates": [ -116.445555559997601, 32.237500000292663 ] } },
{ "type": "Feature", "properties": { "CVE_ENT": "02", "CVE_MUN": "001", "CVE_AGEB": "622-2", "CVE_LOC": "4839", "NOM_LOC": "El Escondido (El Chicharrón)", "OID": 94819 }, "geometry": { "type": "Point", "coordinates": [ -116.478611109997601, 32.241388890292718 ] } },
{ "type": "Feature", "properties": { "CVE_ENT": "02", "CVE_MUN": "001", "CVE_AGEB": "622-2", "CVE_LOC": "4950", "NOM_LOC": "Santa Clara", "OID": 94820 }, "geometry": { "type": "Point", "coordinates": [ -116.444444439997596, 32.236666670292685 ] } },
{ "type": "Feature", "properties": { "CVE_ENT": "02", "CVE_MUN": "001", "CVE_AGEB": "623-7", "CVE_LOC": "0151", "NOM_LOC": "La Misión", "OID": 94821 }, "geometry": { "type": "Point", "coordinates": [ -116.852222219997529, 32.092777780291193 ] } },
{ "type": "Feature", "properties": { "CVE_ENT": "02", "CVE_MUN": "001", "CVE_AGEB": "623-7", "CVE_LOC": "0858", "NOM_LOC": "Campo Marisol", "OID": 94822 }, "geometry": { "type": "Point", "coordinates": [ -116.883333329997541, 32.04694444029073 ] } },
{ "type": "Feature", "properties": { "CVE_ENT": "02", "CVE_MUN": "001", "CVE_AGEB": "623-7", "CVE_LOC": "1184", "NOM_LOC": "Bajamar Santo Tomás", "OID": 94823 }, "geometry": { "type": "Point", "coordinates": [ -116.857222219997553, 32.016666670290441 ] } },
{ "type": "Feature", "properties": { "CVE_ENT": "02", "CVE_MUN": "001", "CVE_AGEB": "623-7", "CVE_LOC": "1700", "NOM_LOC": "Rancho Viejo", "OID": 94824 }, "geometry": { "type": "Point", "coordinates": [ -116.784166669997546, 32.079722220291089 ] } },
{ "type": "Feature", "properties": { "CVE_ENT": "02", "CVE_MUN": "001", "CVE_AGEB": "623-7", "CVE_LOC": "2141", "NOM_LOC": "Buena Vista", "OID": 94825 }, "geometry": { "type": "Point", "coordinates": [ -116.841944439997533, 32.099166670291282 ] } },
{ "type": "Feature", "properties": { "CVE_ENT": "02", "CVE_MUN": "001", "CVE_AGEB": "623-7", "CVE_LOC": "2142", "NOM_LOC": "Bella Vista", "OID": 94826 }, "geometry": { "type": "Point", "coordinates": [ -116.851111109997547, 32.103055560291352 ] } },
{ "type": "Feature", "properties": { "CVE_ENT": "02", "CVE_MUN": "001", "CVE_AGEB": "623-7", "CVE_LOC": "2145", "NOM_LOC": "Agua Caliente", "OID": 94827 }, "geometry": { "type": "Point", "coordinates": [ -116.811388889997573, 32.102777780291348 ] } },
{ "type": "Feature", "properties": { "CVE_ENT": "02", "CVE_MUN": "001", "CVE_AGEB": "623-7", "CVE_LOC": "2146", "NOM_LOC": "La Palma", "OID": 94828 }, "geometry": { "type": "Point", "coordinates": [ -116.821944439997566, 32.101944440291312 ] } },
{ "type": "Feature", "properties": { "CVE_ENT": "02", "CVE_MUN": "001", "CVE_AGEB": "623-7", "CVE_LOC": "2151", "NOM_LOC": "Punta Piedra", "OID": 94829 }, "geometry": { "type": "Point", "coordinates": [ -116.884722219997542, 32.086111110291156 ] } },
{ "type": "Feature", "properties": { "CVE_ENT": "02", "CVE_MUN": "001", "CVE_AGEB": "623-7", "CVE_LOC": "2154", "NOM_LOC": "Mal Paso", "OID": 94830 }, "geometry": { "type": "Point", "coordinates": [ -116.878055559997534, 32.084166670291118 ] } },
{ "type": "Feature", "properties": { "CVE_ENT": "02", "CVE_MUN": "001", "CVE_AGEB": "623-7", "CVE_LOC": "2156", "NOM_LOC": "El Girasol", "OID": 94831 }, "geometry": { "type": "Point", "coordinates": [ -116.884166669997526, 32.084166670291118 ] } },
{ "type": "Feature", "properties": { "CVE_ENT": "02", "CVE_MUN": "001", "CVE_AGEB": "623-7", "CVE_LOC": "2157", "NOM_LOC": "La Salina", "OID": 94832 }, "geometry": { "type": "Point", "coordinates": [ -116.878333329997531, 32.060000000290906 ] } },
{ "type": "Feature", "properties": { "CVE_ENT": "02", "CVE_MUN": "001", "CVE_AGEB": "623-7", "CVE_LOC": "2158", "NOM_LOC": "Rancho Torres", "OID": 94833 }, "geometry": { "type": "Point", "coordinates": [ -116.871388889997533, 32.059444440290868 ] } },
{ "type": "Feature", "properties": { "CVE_ENT": "02", "CVE_MUN": "001", "CVE_AGEB": "623-7", "CVE_LOC": "2159", "NOM_LOC": "Campo Covarrubias", "OID": 94834 }, "geometry": { "type": "Point", "coordinates": [ -116.880555559997518, 32.046388890290736 ] } },
{ "type": "Feature", "properties": { "CVE_ENT": "02", "CVE_MUN": "001", "CVE_AGEB": "623-7", "CVE_LOC": "2160", "NOM_LOC": "Úrsulo Galván", "OID": 94835 }, "geometry": { "type": "Point", "coordinates": [ -116.876666669997533, 32.034722220290618 ] } },
{ "type": "Feature", "properties": { "CVE_ENT": "02", "CVE_MUN": "001", "CVE_AGEB": "623-7", "CVE_LOC": "2691", "NOM_LOC": "Baja Mar San Diego", "OID": 94836 }, "geometry": { "type": "Point", "coordinates": [ -116.861111109997523, 32.019166670290453 ] } },
{ "type": "Feature", "properties": { "CVE_ENT": "02", "CVE_MUN": "001", "CVE_AGEB": "623-7", "CVE_LOC": "2692", "NOM_LOC": "Campo Rivera", "OID": 94837 }, "geometry": { "type": "Point", "coordinates": [ -116.880833329997529, 32.051388890290795 ] } },
{ "type": "Feature", "properties": { "CVE_ENT": "02", "CVE_MUN": "001", "CVE_AGEB": "623-7", "CVE_LOC": "2693", "NOM_LOC": "Ejido Ensenada", "OID": 94838 }, "geometry": { "type": "Point", "coordinates": [ -116.862222219997534, 32.043055560290682 ] } },
{ "type": "Feature", "properties": { "CVE_ENT": "02", "CVE_MUN": "001", "CVE_AGEB": "623-7", "CVE_LOC": "3344", "NOM_LOC": "La Misión [Campo Turístico]", "OID": 94839 }, "geometry": { "type": "Point", "coordinates": [ -116.87694443999753, 32.088888890291166 ] } },
{ "type": "Feature", "properties": { "CVE_ENT": "02", "CVE_MUN": "001", "CVE_AGEB": "623-7", "CVE_LOC": "3625", "NOM_LOC": "Jatay de Cutuy", "OID": 94840 }, "geometry": { "type": "Point", "coordinates": [ -116.83166666999756, 32.033333330290631 ] } },
{ "type": "Feature", "properties": { "CVE_ENT": "02", "CVE_MUN": "001", "CVE_AGEB": "623-7", "CVE_LOC": "3823", "NOM_LOC": "La Pila", "OID": 94841 }, "geometry": { "type": "Point", "coordinates": [ -116.81083332999755, 32.103333330291299 ] } },
{ "type": "Feature", "properties": { "CVE_ENT": "02", "CVE_MUN": "001", "CVE_AGEB": "623-7", "CVE_LOC": "4148", "NOM_LOC": "Ninguno", "OID": 94842 }, "geometry": { "type": "Point", "coordinates": [ -116.830277779997559, 32.098611110291294 ] } },
{ "type": "Feature", "properties": { "CVE_ENT": "02", "CVE_MUN": "001", "CVE_AGEB": "624-1", "CVE_LOC": "0600", "NOM_LOC": "Casa de Paz", "OID": 94843 }, "geometry": { "type": "Point", "coordinates": [ -116.621944439997577, 32.071666670290981 ] } },
{ "type": "Feature", "properties": { "CVE_ENT": "02", "CVE_MUN": "001", "CVE_AGEB": "624-1", "CVE_LOC": "0617", "NOM_LOC": "El Porvenir (Guadalupe)", "OID": 94844 }, "geometry": { "type": "Point", "coordinates": [ -116.627777779997587, 32.075277780291039 ] } },
{ "type": "Feature", "properties": { "CVE_ENT": "02", "CVE_MUN": "001", "CVE_AGEB": "624-1", "CVE_LOC": "0743", "NOM_LOC": "Rancho Dinuwa", "OID": 94845 }, "geometry": { "type": "Point", "coordinates": [ -116.630833329997586, 32.102777780291333 ] } },
{ "type": "Feature", "properties": { "CVE_ENT": "02", "CVE_MUN": "001", "CVE_AGEB": "624-1", "CVE_LOC": "1064", "NOM_LOC": "El Porvenir", "OID": 94846 }, "geometry": { "type": "Point", "coordinates": [ -116.656388889997572, 32.068333330290962 ] } },
{ "type": "Feature", "properties": { "CVE_ENT": "02", "CVE_MUN": "001", "CVE_AGEB": "624-1", "CVE_LOC": "1124", "NOM_LOC": "Agua Escondida (La Soledad)", "OID": 94847 }, "geometry": { "type": "Point", "coordinates": [ -116.660833329997587, 32.138055560291669 ] } },
{ "type": "Feature", "properties": { "CVE_ENT": "02", "CVE_MUN": "001", "CVE_AGEB": "624-1", "CVE_LOC": "1162", "NOM_LOC": "Ampliación el Porvenir", "OID": 94848 }, "geometry": { "type": "Point", "coordinates": [ -116.648333329997584, 32.057222220290861 ] } },
{ "type": "Feature", "properties": { "CVE_ENT": "02", "CVE_MUN": "001", "CVE_AGEB": "624-1", "CVE_LOC": "1919", "NOM_LOC": "Toros Pintos", "OID": 94849 }, "geometry": { "type": "Point", "coordinates": [ -116.664444439997553, 32.046944440290744 ] } },
{ "type": "Feature", "properties": { "CVE_ENT": "02", "CVE_MUN": "001", "CVE_AGEB": "624-1", "CVE_LOC": "2435", "NOM_LOC": "Rancho González", "OID": 94850 }, "geometry": { "type": "Point", "coordinates": [ -116.652499999997588, 32.056666670290845 ] } },
{ "type": "Feature", "properties": { "CVE_ENT": "02", "CVE_MUN": "001", "CVE_AGEB": "624-1", "CVE_LOC": "2440", "NOM_LOC": "Parcela Treinta y Dos", "OID": 94851 }, "geometry": { "type": "Point", "coordinates": [ -116.63027777999757, 32.087222220291139 ] } },
{ "type": "Feature", "properties": { "CVE_ENT": "02", "CVE_MUN": "001", "CVE_AGEB": "624-1", "CVE_LOC": "2442", "NOM_LOC": "Parcela Sesenta y ocho", "OID": 94852 }, "geometry": { "type": "Point", "coordinates": [ -116.64499999999758, 32.085833330291159 ] } },
{ "type": "Feature", "properties": { "CVE_ENT": "02", "CVE_MUN": "001", "CVE_AGEB": "624-1", "CVE_LOC": "2443", "NOM_LOC": "Parcela Veinticuatro", "OID": 94853 }, "geometry": { "type": "Point", "coordinates": [ -116.632222219997601, 32.084166670291118 ] } },
{ "type": "Feature", "properties": { "CVE_ENT": "02", "CVE_MUN": "001", "CVE_AGEB": "624-1", "CVE_LOC": "2444", "NOM_LOC": "Parcela Sesenta y Siete", "OID": 94854 }, "geometry": { "type": "Point", "coordinates": [ -116.64555555999759, 32.08666667029113 ] } },
{ "type": "Feature", "properties": { "CVE_ENT": "02", "CVE_MUN": "001", "CVE_AGEB": "624-1", "CVE_LOC": "2445", "NOM_LOC": "Parcela Setenta y Nueve", "OID": 94855 }, "geometry": { "type": "Point", "coordinates": [ -116.646388889997581, 32.085555560291148 ] } },
{ "type": "Feature", "properties": { "CVE_ENT": "02", "CVE_MUN": "001", "CVE_AGEB": "624-1", "CVE_LOC": "2446", "NOM_LOC": "Parcela Noventa y Seis", "OID": 94856 }, "geometry": { "type": "Point", "coordinates": [ -116.646944439997569, 32.074166670291035 ] } },
{ "type": "Feature", "properties": { "CVE_ENT": "02", "CVE_MUN": "001", "CVE_AGEB": "624-1", "CVE_LOC": "2455", "NOM_LOC": "Rancho Carmelita", "OID": 94857 }, "geometry": { "type": "Point", "coordinates": [ -116.654722219997581, 32.05416667029084 ] } },
{ "type": "Feature", "properties": { "CVE_ENT": "02", "CVE_MUN": "001", "CVE_AGEB": "624-1", "CVE_LOC": "3430", "NOM_LOC": "Familia Carreón", "OID": 94858 }, "geometry": { "type": "Point", "coordinates": [ -116.628055559997577, 32.092500000291224 ] } },
{ "type": "Feature", "properties": { "CVE_ENT": "02", "CVE_MUN": "001", "CVE_AGEB": "624-1", "CVE_LOC": "3431", "NOM_LOC": "Rancho Bringas", "OID": 94859 }, "geometry": { "type": "Point", "coordinates": [ -116.643055559997578, 32.088888890291166 ] } },
{ "type": "Feature", "properties": { "CVE_ENT": "02", "CVE_MUN": "001", "CVE_AGEB": "624-1", "CVE_LOC": "3436", "NOM_LOC": "Familia Cerda", "OID": 94860 }, "geometry": { "type": "Point", "coordinates": [ -116.651111109997586, 32.053888890290807 ] } },
{ "type": "Feature", "properties": { "CVE_ENT": "02", "CVE_MUN": "001", "CVE_AGEB": "624-1", "CVE_LOC": "3460", "NOM_LOC": "Familia González", "OID": 94861 }, "geometry": { "type": "Point", "coordinates": [ -116.649444439997581, 32.054444440290844 ] } },
{ "type": "Feature", "properties": { "CVE_ENT": "02", "CVE_MUN": "001", "CVE_AGEB": "624-1", "CVE_LOC": "3478", "NOM_LOC": "Familia Hirata", "OID": 94862 }, "geometry": { "type": "Point", "coordinates": [ -116.63944443999759, 32.06583333029095 ] } },
{ "type": "Feature", "properties": { "CVE_ENT": "02", "CVE_MUN": "001", "CVE_AGEB": "624-1", "CVE_LOC": "3538", "NOM_LOC": "Familia Reyes Ayala", "OID": 94863 }, "geometry": { "type": "Point", "coordinates": [ -116.651666669997567, 32.05805556029086 ] } },
{ "type": "Feature", "properties": { "CVE_ENT": "02", "CVE_MUN": "001", "CVE_AGEB": "624-1", "CVE_LOC": "3543", "NOM_LOC": "Familia Rochín", "OID": 94864 }, "geometry": { "type": "Point", "coordinates": [ -116.640833329997591, 32.071111110290992 ] } },
{ "type": "Feature", "properties": { "CVE_ENT": "02", "CVE_MUN": "001", "CVE_AGEB": "624-1", "CVE_LOC": "3554", "NOM_LOC": "Familia Saldaña", "OID": 94865 }, "geometry": { "type": "Point", "coordinates": [ -116.652222219997569, 32.054444440290844 ] } },
{ "type": "Feature", "properties": { "CVE_ENT": "02", "CVE_MUN": "001", "CVE_AGEB": "624-1", "CVE_LOC": "3557", "NOM_LOC": "Familia Santana", "OID": 94866 }, "geometry": { "type": "Point", "coordinates": [ -116.653333329997579, 32.070000000290968 ] } },
{ "type": "Feature", "properties": { "CVE_ENT": "02", "CVE_MUN": "001", "CVE_AGEB": "624-1", "CVE_LOC": "3564", "NOM_LOC": "Familia Solorio", "OID": 94867 }, "geometry": { "type": "Point", "coordinates": [ -116.649722219997585, 32.061944440290894 ] } },
{ "type": "Feature", "properties": { "CVE_ENT": "02", "CVE_MUN": "001", "CVE_AGEB": "624-1", "CVE_LOC": "3571", "NOM_LOC": "Familia Ulloa", "OID": 94868 }, "geometry": { "type": "Point", "coordinates": [ -116.637222219997568, 32.114166670291446 ] } },
{ "type": "Feature", "properties": { "CVE_ENT": "02", "CVE_MUN": "001", "CVE_AGEB": "624-1", "CVE_LOC": "3572", "NOM_LOC": "Familia Ulloa (San Miguel)", "OID": 94869 }, "geometry": { "type": "Point", "coordinates": [ -116.634999999997575, 32.103611110291347 ] } },
{ "type": "Feature", "properties": { "CVE_ENT": "02", "CVE_MUN": "001", "CVE_AGEB": "624-1", "CVE_LOC": "3645", "NOM_LOC": "El Mirador", "OID": 94870 }, "geometry": { "type": "Point", "coordinates": [ -116.650833329997596, 32.047222220290749 ] } },
{ "type": "Feature", "properties": { "CVE_ENT": "02", "CVE_MUN": "001", "CVE_AGEB": "624-1", "CVE_LOC": "3667", "NOM_LOC": "Parcela Setenta y Cuatro B", "OID": 94871 }, "geometry": { "type": "Point", "coordinates": [ -116.63972221999758, 32.051388890290795 ] } },
{ "type": "Feature", "properties": { "CVE_ENT": "02", "CVE_MUN": "001", "CVE_AGEB": "624-1", "CVE_LOC": "3679", "NOM_LOC": "Parcela Cuarenta", "OID": 94872 }, "geometry": { "type": "Point", "coordinates": [ -116.619999999997574, 32.101666670291294 ] } },
{ "type": "Feature", "properties": { "CVE_ENT": "02", "CVE_MUN": "001", "CVE_AGEB": "624-1", "CVE_LOC": "3680", "NOM_LOC": "Parcela Cuarenta y Siete", "OID": 94873 }, "geometry": { "type": "Point", "coordinates": [ -116.608888889997587, 32.100277780291307 ] } },
{ "type": "Feature", "properties": { "CVE_ENT": "02", "CVE_MUN": "001", "CVE_AGEB": "624-1", "CVE_LOC": "3856", "NOM_LOC": "Rancho Bibayoff", "OID": 94874 }, "geometry": { "type": "Point", "coordinates": [ -116.659722219997576, 32.051944440290818 ] } },
{ "type": "Feature", "properties": { "CVE_ENT": "02", "CVE_MUN": "001", "CVE_AGEB": "624-1", "CVE_LOC": "3959", "NOM_LOC": "Rancho Jáuregui", "OID": 94875 }, "geometry": { "type": "Point", "coordinates": [ -116.655833329997563, 32.05305556029078 ] } },
{ "type": "Feature", "properties": { "CVE_ENT": "02", "CVE_MUN": "001", "CVE_AGEB": "624-1", "CVE_LOC": "4063", "NOM_LOC": "Rancho Salgado", "OID": 94876 }, "geometry": { "type": "Point", "coordinates": [ -116.653055559997583, 32.05416667029084 ] } },
{ "type": "Feature", "properties": { "CVE_ENT": "02", "CVE_MUN": "001", "CVE_AGEB": "624-1", "CVE_LOC": "4096", "NOM_LOC": "Rancho Santana", "OID": 94877 }, "geometry": { "type": "Point", "coordinates": [ -116.615277779997569, 32.101666670291294 ] } },
{ "type": "Feature", "properties": { "CVE_ENT": "02", "CVE_MUN": "001", "CVE_AGEB": "624-1", "CVE_LOC": "4100", "NOM_LOC": "Ninguno", "OID": 94878 }, "geometry": { "type": "Point", "coordinates": [ -116.661388889997582, 32.043333330290722 ] } },
{ "type": "Feature", "properties": { "CVE_ENT": "02", "CVE_MUN": "001", "CVE_AGEB": "624-1", "CVE_LOC": "4557", "NOM_LOC": "El Borrego", "OID": 94879 }, "geometry": { "type": "Point", "coordinates": [ -116.605833329997566, 32.104166670291335 ] } },
{ "type": "Feature", "properties": { "CVE_ENT": "02", "CVE_MUN": "001", "CVE_AGEB": "624-1", "CVE_LOC": "4595", "NOM_LOC": "Reacomodo Santa Rosa (Vicente Guerrero)", "OID": 94880 }, "geometry": { "type": "Point", "coordinates": [ -116.698333329997553, 32.039722220290656 ] } },
{ "type": "Feature", "properties": { "CVE_ENT": "02", "CVE_MUN": "001", "CVE_AGEB": "624-1", "CVE_LOC": "4848", "NOM_LOC": "San José de la Zorra", "OID": 94881 }, "geometry": { "type": "Point", "coordinates": [ -116.692222219997589, 32.177500000292056 ] } },
{ "type": "Feature", "properties": { "CVE_ENT": "02", "CVE_MUN": "001", "CVE_AGEB": "624-1", "CVE_LOC": "4933", "NOM_LOC": "Los Álamos", "OID": 94882 }, "geometry": { "type": "Point", "coordinates": [ -116.62166666999758, 32.069166670290969 ] } },
{ "type": "Feature", "properties": { "CVE_ENT": "02", "CVE_MUN": "001", "CVE_AGEB": "624-1", "CVE_LOC": "4934", "NOM_LOC": "Rancho Guadalupe", "OID": 94883 }, "geometry": { "type": "Point", "coordinates": [ -116.62166666999758, 32.075277780291039 ] } },
{ "type": "Feature", "properties": { "CVE_ENT": "02", "CVE_MUN": "001", "CVE_AGEB": "624-1", "CVE_LOC": "4937", "NOM_LOC": "Parcela Ciento Tres", "OID": 94884 }, "geometry": { "type": "Point", "coordinates": [ -116.636944439997578, 32.073333330291035 ] } },
{ "type": "Feature", "properties": { "CVE_ENT": "02", "CVE_MUN": "001", "CVE_AGEB": "624-1", "CVE_LOC": "4938", "NOM_LOC": "Los Tres Encinos", "OID": 94885 }, "geometry": { "type": "Point", "coordinates": [ -116.655555559997595, 32.054444440290844 ] } },
{ "type": "Feature", "properties": { "CVE_ENT": "02", "CVE_MUN": "001", "CVE_AGEB": "624-1", "CVE_LOC": "4940", "NOM_LOC": "Rancho de Rafael Romo", "OID": 94886 }, "geometry": { "type": "Point", "coordinates": [ -116.654999999997571, 32.053333330290819 ] } },
{ "type": "Feature", "properties": { "CVE_ENT": "02", "CVE_MUN": "001", "CVE_AGEB": "625-6", "CVE_LOC": "0149", "NOM_LOC": "El Milagro", "OID": 94887 }, "geometry": { "type": "Point", "coordinates": [ -116.542499999997588, 32.088888890291166 ] } },
{ "type": "Feature", "properties": { "CVE_ENT": "02", "CVE_MUN": "001", "CVE_AGEB": "625-6", "CVE_LOC": "0505", "NOM_LOC": "Rancho Grande (Viñedos Alejandra)", "OID": 94888 }, "geometry": { "type": "Point", "coordinates": [ -116.586944439997581, 32.075277780291067 ] } },
{ "type": "Feature", "properties": { "CVE_ENT": "02", "CVE_MUN": "001", "CVE_AGEB": "625-6", "CVE_LOC": "0549", "NOM_LOC": "Familia Aguirre García", "OID": 94889 }, "geometry": { "type": "Point", "coordinates": [ -116.553333329997585, 32.092222220291205 ] } },
{ "type": "Feature", "properties": { "CVE_ENT": "02", "CVE_MUN": "001", "CVE_AGEB": "625-6", "CVE_LOC": "0729", "NOM_LOC": "El Sauce", "OID": 94890 }, "geometry": { "type": "Point", "coordinates": [ -116.594999999997583, 32.082500000291112 ] } },
{ "type": "Feature", "properties": { "CVE_ENT": "02", "CVE_MUN": "001", "CVE_AGEB": "625-6", "CVE_LOC": "0730", "NOM_LOC": "San Martín", "OID": 94891 }, "geometry": { "type": "Point", "coordinates": [ -116.586944439997581, 32.089166670291171 ] } },
{ "type": "Feature", "properties": { "CVE_ENT": "02", "CVE_MUN": "001", "CVE_AGEB": "625-6", "CVE_LOC": "0731", "NOM_LOC": "Rancho Sordomudo", "OID": 94892 }, "geometry": { "type": "Point", "coordinates": [ -116.548888889997571, 32.116666670291487 ] } },
{ "type": "Feature", "properties": { "CVE_ENT": "02", "CVE_MUN": "001", "CVE_AGEB": "625-6", "CVE_LOC": "1028", "NOM_LOC": "Rancho Jiménez", "OID": 94893 }, "geometry": { "type": "Point", "coordinates": [ -116.591944439997576, 32.087222220291153 ] } },
{ "type": "Feature", "properties": { "CVE_ENT": "02", "CVE_MUN": "001", "CVE_AGEB": "625-6", "CVE_LOC": "1039", "NOM_LOC": "Rancho Manas", "OID": 94894 }, "geometry": { "type": "Point", "coordinates": [ -116.542499999997588, 32.097777780291217 ] } },
{ "type": "Feature", "properties": { "CVE_ENT": "02", "CVE_MUN": "001", "CVE_AGEB": "625-6", "CVE_LOC": "1086", "NOM_LOC": "Rancho Sandoval", "OID": 94895 }, "geometry": { "type": "Point", "coordinates": [ -116.534444439997614, 32.113888890291427 ] } },
{ "type": "Feature", "properties": { "CVE_ENT": "02", "CVE_MUN": "001", "CVE_AGEB": "625-6", "CVE_LOC": "1267", "NOM_LOC": "Cañada del Trigo", "OID": 94896 }, "geometry": { "type": "Point", "coordinates": [ -116.603611109997573, 32.111666670291413 ] } },
{ "type": "Feature", "properties": { "CVE_ENT": "02", "CVE_MUN": "001", "CVE_AGEB": "625-6", "CVE_LOC": "1404", "NOM_LOC": "Rancho Franchi", "OID": 94897 }, "geometry": { "type": "Point", "coordinates": [ -116.600555559997588, 32.097500000291276 ] } },
{ "type": "Feature", "properties": { "CVE_ENT": "02", "CVE_MUN": "001", "CVE_AGEB": "625-6", "CVE_LOC": "1632", "NOM_LOC": "La Ponderosa", "OID": 94898 }, "geometry": { "type": "Point", "coordinates": [ -116.60138888999758, 32.076388890291021 ] } },
{ "type": "Feature", "properties": { "CVE_ENT": "02", "CVE_MUN": "001", "CVE_AGEB": "625-6", "CVE_LOC": "2438", "NOM_LOC": "El Sacrificio", "OID": 94899 }, "geometry": { "type": "Point", "coordinates": [ -116.597777779997585, 32.100277780291322 ] } },
{ "type": "Feature", "properties": { "CVE_ENT": "02", "CVE_MUN": "001", "CVE_AGEB": "625-6", "CVE_LOC": "2439", "NOM_LOC": "Rancho Vega", "OID": 94900 }, "geometry": { "type": "Point", "coordinates": [ -116.594444439997588, 32.091388890291199 ] } },
{ "type": "Feature", "properties": { "CVE_ENT": "02", "CVE_MUN": "001", "CVE_AGEB": "625-6", "CVE_LOC": "2457", "NOM_LOC": "Las Flores", "OID": 94901 }, "geometry": { "type": "Point", "coordinates": [ -116.509166669997569, 32.11194444029141 ] } },
{ "type": "Feature", "properties": { "CVE_ENT": "02", "CVE_MUN": "001", "CVE_AGEB": "625-6", "CVE_LOC": "2458", "NOM_LOC": "La Gotita", "OID": 94902 }, "geometry": { "type": "Point", "coordinates": [ -116.511111109997614, 32.112500000291412 ] } },
{ "type": "Feature", "properties": { "CVE_ENT": "02", "CVE_MUN": "001", "CVE_AGEB": "625-6", "CVE_LOC": "2460", "NOM_LOC": "Las Delicias", "OID": 94903 }, "geometry": { "type": "Point", "coordinates": [ -116.584999999997578, 32.09000000029117 ] } },
{ "type": "Feature", "properties": { "CVE_ENT": "02", "CVE_MUN": "001", "CVE_AGEB": "625-6", "CVE_LOC": "2462", "NOM_LOC": "María Teresa", "OID": 94904 }, "geometry": { "type": "Point", "coordinates": [ -116.591111109997584, 32.0613888902909 ] } },
{ "type": "Feature", "properties": { "CVE_ENT": "02", "CVE_MUN": "001", "CVE_AGEB": "625-6", "CVE_LOC": "2463", "NOM_LOC": "El Venado", "OID": 94905 }, "geometry": { "type": "Point", "coordinates": [ -116.590277779997578, 32.064444440290927 ] } },
{ "type": "Feature", "properties": { "CVE_ENT": "02", "CVE_MUN": "001", "CVE_AGEB": "625-6", "CVE_LOC": "2464", "NOM_LOC": "El Papalote", "OID": 94906 }, "geometry": { "type": "Point", "coordinates": [ -116.588888889997591, 32.071111110291014 ] } },
{ "type": "Feature", "properties": { "CVE_ENT": "02", "CVE_MUN": "001", "CVE_AGEB": "625-6", "CVE_LOC": "2465", "NOM_LOC": "El Rosario", "OID": 94907 }, "geometry": { "type": "Point", "coordinates": [ -116.579166669997591, 32.076111110291052 ] } },
{ "type": "Feature", "properties": { "CVE_ENT": "02", "CVE_MUN": "001", "CVE_AGEB": "625-6", "CVE_LOC": "2472", "NOM_LOC": "María del Rosario", "OID": 94908 }, "geometry": { "type": "Point", "coordinates": [ -116.531944439997602, 32.102500000291322 ] } },
{ "type": "Feature", "properties": { "CVE_ENT": "02", "CVE_MUN": "001", "CVE_AGEB": "625-6", "CVE_LOC": "2473", "NOM_LOC": "El Encinal", "OID": 94909 }, "geometry": { "type": "Point", "coordinates": [ -116.523888889997593, 32.102500000291322 ] } },
{ "type": "Feature", "properties": { "CVE_ENT": "02", "CVE_MUN": "001", "CVE_AGEB": "625-6", "CVE_LOC": "2479", "NOM_LOC": "Ibarra (Sauzal el Carmen) [Agroindustria]", "OID": 94910 }, "geometry": { "type": "Point", "coordinates": [ -116.612777779997586, 32.080555560291089 ] } },
{ "type": "Feature", "properties": { "CVE_ENT": "02", "CVE_MUN": "001", "CVE_AGEB": "625-6", "CVE_LOC": "2775", "NOM_LOC": "Rancho Loza", "OID": 94911 }, "geometry": { "type": "Point", "coordinates": [ -116.596944439997571, 32.05305556029078 ] } },
{ "type": "Feature", "properties": { "CVE_ENT": "02", "CVE_MUN": "001", "CVE_AGEB": "625-6", "CVE_LOC": "3368", "NOM_LOC": "Artículo Ciento Quince", "OID": 94912 }, "geometry": { "type": "Point", "coordinates": [ -116.574999999997573, 32.081388890291073 ] } },
{ "type": "Feature", "properties": { "CVE_ENT": "02", "CVE_MUN": "001", "CVE_AGEB": "625-6", "CVE_LOC": "3378", "NOM_LOC": "Las Delicias", "OID": 94913 }, "geometry": { "type": "Point", "coordinates": [ -116.594166669997591, 32.059166670290892 ] } },
{ "type": "Feature", "properties": { "CVE_ENT": "02", "CVE_MUN": "001", "CVE_AGEB": "625-6", "CVE_LOC": "3380", "NOM_LOC": "Doña Ventura", "OID": 94914 }, "geometry": { "type": "Point", "coordinates": [ -116.590833329997565, 32.062777780290915 ] } },
{ "type": "Feature", "properties": { "CVE_ENT": "02", "CVE_MUN": "001", "CVE_AGEB": "625-6", "CVE_LOC": "3446", "NOM_LOC": "Familia Flores", "OID": 94915 }, "geometry": { "type": "Point", "coordinates": [ -116.608055559997581, 32.068055560290958 ] } },
{ "type": "Feature", "properties": { "CVE_ENT": "02", "CVE_MUN": "001", "CVE_AGEB": "625-6", "CVE_LOC": "3450", "NOM_LOC": "Familia Galván Martínez", "OID": 94916 }, "geometry": { "type": "Point", "coordinates": [ -116.561111109997583, 32.094166670291223 ] } },
{ "type": "Feature", "properties": { "CVE_ENT": "02", "CVE_MUN": "001", "CVE_AGEB": "625-6", "CVE_LOC": "3541", "NOM_LOC": "Familia Rivas", "OID": 94917 }, "geometry": { "type": "Point", "coordinates": [ -116.620555559997598, 32.088055560291174 ] } },
{ "type": "Feature", "properties": { "CVE_ENT": "02", "CVE_MUN": "001", "CVE_AGEB": "625-6", "CVE_LOC": "3548", "NOM_LOC": "Familia Rogoff", "OID": 94918 }, "geometry": { "type": "Point", "coordinates": [ -116.615277779997569, 32.077500000291074 ] } },
{ "type": "Feature", "properties": { "CVE_ENT": "02", "CVE_MUN": "001", "CVE_AGEB": "625-6", "CVE_LOC": "3831", "NOM_LOC": "El Potrillo", "OID": 94919 }, "geometry": { "type": "Point", "coordinates": [ -116.586666669997584, 32.064722220290939 ] } },
{ "type": "Feature", "properties": { "CVE_ENT": "02", "CVE_MUN": "001", "CVE_AGEB": "625-6", "CVE_LOC": "3864", "NOM_LOC": "Casa Blanca", "OID": 94920 }, "geometry": { "type": "Point", "coordinates": [ -116.603055559997586, 32.066111110290926 ] } },
{ "type": "Feature", "properties": { "CVE_ENT": "02", "CVE_MUN": "001", "CVE_AGEB": "625-6", "CVE_LOC": "3947", "NOM_LOC": "Rancho Gallardo", "OID": 94921 }, "geometry": { "type": "Point", "coordinates": [ -116.613333329997573, 32.095555560291238 ] } },
{ "type": "Feature", "properties": { "CVE_ENT": "02", "CVE_MUN": "001", "CVE_AGEB": "625-6", "CVE_LOC": "3991", "NOM_LOC": "Las Delicias", "OID": 94922 }, "geometry": { "type": "Point", "coordinates": [ -116.607222219997567, 32.081388890291073 ] } },
{ "type": "Feature", "properties": { "CVE_ENT": "02", "CVE_MUN": "001", "CVE_AGEB": "625-6", "CVE_LOC": "4007", "NOM_LOC": "Los Amigos", "OID": 94923 }, "geometry": { "type": "Point", "coordinates": [ -116.60666666999758, 32.068055560291 ] } },
{ "type": "Feature", "properties": { "CVE_ENT": "02", "CVE_MUN": "001", "CVE_AGEB": "625-6", "CVE_LOC": "4033", "NOM_LOC": "Rancho Lousiana", "OID": 94924 }, "geometry": { "type": "Point", "coordinates": [ -116.604999999997574, 32.081944440291117 ] } },
{ "type": "Feature", "properties": { "CVE_ENT": "02", "CVE_MUN": "001", "CVE_AGEB": "625-6", "CVE_LOC": "4089", "NOM_LOC": "Santa Elena", "OID": 94925 }, "geometry": { "type": "Point", "coordinates": [ -116.537777779997583, 32.098055560291279 ] } },
{ "type": "Feature", "properties": { "CVE_ENT": "02", "CVE_MUN": "001", "CVE_AGEB": "625-6", "CVE_LOC": "4092", "NOM_LOC": "Santa Lucía (Familia Peña Hernández)", "OID": 94926 }, "geometry": { "type": "Point", "coordinates": [ -116.535277779997571, 32.100000000291296 ] } },
{ "type": "Feature", "properties": { "CVE_ENT": "02", "CVE_MUN": "001", "CVE_AGEB": "625-6", "CVE_LOC": "4105", "NOM_LOC": "Rancho Smokey", "OID": 94927 }, "geometry": { "type": "Point", "coordinates": [ -116.603888889997563, 32.076111110291052 ] } },
{ "type": "Feature", "properties": { "CVE_ENT": "02", "CVE_MUN": "001", "CVE_AGEB": "625-6", "CVE_LOC": "4115", "NOM_LOC": "Rancho Villarreal", "OID": 94928 }, "geometry": { "type": "Point", "coordinates": [ -116.62166666999758, 32.08694444029117 ] } },
{ "type": "Feature", "properties": { "CVE_ENT": "02", "CVE_MUN": "001", "CVE_AGEB": "625-6", "CVE_LOC": "4149", "NOM_LOC": "Ninguno", "OID": 94929 }, "geometry": { "type": "Point", "coordinates": [ -116.593611109997582, 32.058611110290876 ] } },
{ "type": "Feature", "properties": { "CVE_ENT": "02", "CVE_MUN": "001", "CVE_AGEB": "625-6", "CVE_LOC": "4488", "NOM_LOC": "Adobe Guadalupe", "OID": 94930 }, "geometry": { "type": "Point", "coordinates": [ -116.624166669997592, 32.085833330291159 ] } },
{ "type": "Feature", "properties": { "CVE_ENT": "02", "CVE_MUN": "001", "CVE_AGEB": "625-6", "CVE_LOC": "4551", "NOM_LOC": "Rancho Cinco", "OID": 94931 }, "geometry": { "type": "Point", "coordinates": [ -116.608055559997581, 32.09666667029127 ] } },
{ "type": "Feature", "properties": { "CVE_ENT": "02", "CVE_MUN": "001", "CVE_AGEB": "627-5", "CVE_LOC": "0984", "NOM_LOC": "Arroyo de Guadalupe (Agua Caliente)", "OID": 94932 }, "geometry": { "type": "Point", "coordinates": [ -116.454166669997619, 32.107500000291388 ] } },
{ "type": "Feature", "properties": { "CVE_ENT": "02", "CVE_MUN": "001", "CVE_AGEB": "627-5", "CVE_LOC": "4951", "NOM_LOC": "Rancho Jiménez", "OID": 94933 }, "geometry": { "type": "Point", "coordinates": [ -116.502777779997615, 32.108888890291389 ] } },
{ "type": "Feature", "properties": { "CVE_ENT": "02", "CVE_MUN": "001", "CVE_AGEB": "628-A", "CVE_LOC": "0081", "NOM_LOC": "Las Chichihuas", "OID": 94934 }, "geometry": { "type": "Point", "coordinates": [ -116.762222219997554, 32.0044444402903 ] } },
{ "type": "Feature", "properties": { "CVE_ENT": "02", "CVE_MUN": "001", "CVE_AGEB": "628-A", "CVE_LOC": "0861", "NOM_LOC": "El Salto", "OID": 94935 }, "geometry": { "type": "Point", "coordinates": [ -116.775277779997566, 32.036111110290662 ] } },
{ "type": "Feature", "properties": { "CVE_ENT": "02", "CVE_MUN": "001", "CVE_AGEB": "628-A", "CVE_LOC": "0862", "NOM_LOC": "El Horno", "OID": 94936 }, "geometry": { "type": "Point", "coordinates": [ -116.794444439997548, 32.037500000290677 ] } },
{ "type": "Feature", "properties": { "CVE_ENT": "02", "CVE_MUN": "001", "CVE_AGEB": "628-A", "CVE_LOC": "1201", "NOM_LOC": "Rancho Bonito", "OID": 94937 }, "geometry": { "type": "Point", "coordinates": [ -116.746666669997538, 31.980000000290087 ] } },
{ "type": "Feature", "properties": { "CVE_ENT": "02", "CVE_MUN": "001", "CVE_AGEB": "628-A", "CVE_LOC": "1870", "NOM_LOC": "Ejido Santa Rosa", "OID": 94938 }, "geometry": { "type": "Point", "coordinates": [ -116.743888889997564, 32.027500000290551 ] } },
{ "type": "Feature", "properties": { "CVE_ENT": "02", "CVE_MUN": "001", "CVE_AGEB": "628-A", "CVE_LOC": "1871", "NOM_LOC": "Santa Rosa", "OID": 94939 }, "geometry": { "type": "Point", "coordinates": [ -116.768333329997574, 32.016666670290441 ] } },
{ "type": "Feature", "properties": { "CVE_ENT": "02", "CVE_MUN": "001", "CVE_AGEB": "628-A", "CVE_LOC": "2494", "NOM_LOC": "Ninguno", "OID": 94940 }, "geometry": { "type": "Point", "coordinates": [ -116.743055559997543, 31.98500000029011 ] } },
{ "type": "Feature", "properties": { "CVE_ENT": "02", "CVE_MUN": "001", "CVE_AGEB": "628-A", "CVE_LOC": "2701", "NOM_LOC": "San Pedro", "OID": 94941 }, "geometry": { "type": "Point", "coordinates": [ -116.754722219997547, 32.002777780290323 ] } },
{ "type": "Feature", "properties": { "CVE_ENT": "02", "CVE_MUN": "001", "CVE_AGEB": "628-A", "CVE_LOC": "3825", "NOM_LOC": "Pitones", "OID": 94942 }, "geometry": { "type": "Point", "coordinates": [ -116.76388888999756, 32.018888890290469 ] } },
{ "type": "Feature", "properties": { "CVE_ENT": "02", "CVE_MUN": "001", "CVE_AGEB": "628-A", "CVE_LOC": "4094", "NOM_LOC": "Santa Rosa", "OID": 94943 }, "geometry": { "type": "Point", "coordinates": [ -116.776944439997536, 32.021666670290486 ] } },
{ "type": "Feature", "properties": { "CVE_ENT": "02", "CVE_MUN": "001", "CVE_AGEB": "628-A", "CVE_LOC": "4143", "NOM_LOC": "Santa Rosa", "OID": 94944 }, "geometry": { "type": "Point", "coordinates": [ -116.780277779997562, 32.0216666702905 ] } },
{ "type": "Feature", "properties": { "CVE_ENT": "02", "CVE_MUN": "001", "CVE_AGEB": "628-A", "CVE_LOC": "4151", "NOM_LOC": "Ninguno", "OID": 94945 }, "geometry": { "type": "Point", "coordinates": [ -116.780555559997552, 32.027222220290533 ] } },
{ "type": "Feature", "properties": { "CVE_ENT": "02", "CVE_MUN": "001", "CVE_AGEB": "628-A", "CVE_LOC": "4549", "NOM_LOC": "Rancho Carrillo", "OID": 94946 }, "geometry": { "type": "Point", "coordinates": [ -116.752499999997553, 32.026944440290549 ] } },
{ "type": "Feature", "properties": { "CVE_ENT": "02", "CVE_MUN": "001", "CVE_AGEB": "629-4", "CVE_LOC": "0132", "NOM_LOC": "El Junco", "OID": 94947 }, "geometry": { "type": "Point", "coordinates": [ -116.736388889997542, 31.959722220289876 ] } },
{ "type": "Feature", "properties": { "CVE_ENT": "02", "CVE_MUN": "001", "CVE_AGEB": "629-4", "CVE_LOC": "0254", "NOM_LOC": "Alegre (El Tigre)", "OID": 94948 }, "geometry": { "type": "Point", "coordinates": [ -116.73472221999755, 31.946944440289716 ] } },
{ "type": "Feature", "properties": { "CVE_ENT": "02", "CVE_MUN": "001", "CVE_AGEB": "629-4", "CVE_LOC": "0327", "NOM_LOC": "Los Alisos", "OID": 94949 }, "geometry": { "type": "Point", "coordinates": [ -116.6752777799976, 31.972777780290006 ] } },
{ "type": "Feature", "properties": { "CVE_ENT": "02", "CVE_MUN": "001", "CVE_AGEB": "629-4", "CVE_LOC": "0440", "NOM_LOC": "El Carmen", "OID": 94950 }, "geometry": { "type": "Point", "coordinates": [ -116.715833329997565, 31.927500000289541 ] } },
{ "type": "Feature", "properties": { "CVE_ENT": "02", "CVE_MUN": "001", "CVE_AGEB": "629-4", "CVE_LOC": "0534", "NOM_LOC": "La Llave", "OID": 94951 }, "geometry": { "type": "Point", "coordinates": [ -116.67722221999756, 31.976666670290047 ] } },
{ "type": "Feature", "properties": { "CVE_ENT": "02", "CVE_MUN": "001", "CVE_AGEB": "629-4", "CVE_LOC": "0724", "NOM_LOC": "San Jorge", "OID": 94952 }, "geometry": { "type": "Point", "coordinates": [ -116.669166669997566, 31.983333330290101 ] } },
{ "type": "Feature", "properties": { "CVE_ENT": "02", "CVE_MUN": "001", "CVE_AGEB": "629-4", "CVE_LOC": "0852", "NOM_LOC": "Las Delicias", "OID": 94953 }, "geometry": { "type": "Point", "coordinates": [ -116.70583332999756, 31.990277780290182 ] } },
{ "type": "Feature", "properties": { "CVE_ENT": "02", "CVE_MUN": "001", "CVE_AGEB": "629-4", "CVE_LOC": "1160", "NOM_LOC": "Los Cinco (Coyotito Coyote Loco)", "OID": 94954 }, "geometry": { "type": "Point", "coordinates": [ -116.674166669997589, 31.999166670290286 ] } },
{ "type": "Feature", "properties": { "CVE_ENT": "02", "CVE_MUN": "001", "CVE_AGEB": "629-4", "CVE_LOC": "1376", "NOM_LOC": "La Esperanza", "OID": 94955 }, "geometry": { "type": "Point", "coordinates": [ -116.685277779997591, 31.977500000290036 ] } },
{ "type": "Feature", "properties": { "CVE_ENT": "02", "CVE_MUN": "001", "CVE_AGEB": "629-4", "CVE_LOC": "1555", "NOM_LOC": "San Miguel", "OID": 94956 }, "geometry": { "type": "Point", "coordinates": [ -116.731111109997556, 31.91333333028938 ] } },
{ "type": "Feature", "properties": { "CVE_ENT": "02", "CVE_MUN": "001", "CVE_AGEB": "629-4", "CVE_LOC": "1812", "NOM_LOC": "San Miguel (Cíbolas de Mar)", "OID": 94957 }, "geometry": { "type": "Point", "coordinates": [ -116.724444439997555, 31.906944440289351 ] } },
{ "type": "Feature", "properties": { "CVE_ENT": "02", "CVE_MUN": "001", "CVE_AGEB": "629-4", "CVE_LOC": "2486", "NOM_LOC": "Rancho García", "OID": 94958 }, "geometry": { "type": "Point", "coordinates": [ -116.736111109997552, 31.93638889028961 ] } },
{ "type": "Feature", "properties": { "CVE_ENT": "02", "CVE_MUN": "001", "CVE_AGEB": "629-4", "CVE_LOC": "2487", "NOM_LOC": "Ejido Ley Federal de Reforma Agraria (El Tigre)", "OID": 94959 }, "geometry": { "type": "Point", "coordinates": [ -116.733611109997568, 31.947500000289732 ] } },
{ "type": "Feature", "properties": { "CVE_ENT": "02", "CVE_MUN": "001", "CVE_AGEB": "629-4", "CVE_LOC": "2488", "NOM_LOC": "El Milagro", "OID": 94960 }, "geometry": { "type": "Point", "coordinates": [ -116.736666669997561, 31.963611110289893 ] } },
{ "type": "Feature", "properties": { "CVE_ENT": "02", "CVE_MUN": "001", "CVE_AGEB": "629-4", "CVE_LOC": "2544", "NOM_LOC": "Rancho Argona", "OID": 94961 }, "geometry": { "type": "Point", "coordinates": [ -116.6752777799976, 31.96472222028989 ] } },
{ "type": "Feature", "properties": { "CVE_ENT": "02", "CVE_MUN": "001", "CVE_AGEB": "629-4", "CVE_LOC": "3642", "NOM_LOC": "Mercado", "OID": 94962 }, "geometry": { "type": "Point", "coordinates": [ -116.679444439997582, 31.985555560290127 ] } },
{ "type": "Feature", "properties": { "CVE_ENT": "02", "CVE_MUN": "001", "CVE_AGEB": "629-4", "CVE_LOC": "3868", "NOM_LOC": "Rancho Chemalía", "OID": 94963 }, "geometry": { "type": "Point", "coordinates": [ -116.665833329997582, 31.989166670290171 ] } },
{ "type": "Feature", "properties": { "CVE_ENT": "02", "CVE_MUN": "001", "CVE_AGEB": "629-4", "CVE_LOC": "4916", "NOM_LOC": "El Jorol", "OID": 94964 }, "geometry": { "type": "Point", "coordinates": [ -116.733888889997559, 31.966111110289944 ] } },
{ "type": "Feature", "properties": { "CVE_ENT": "02", "CVE_MUN": "001", "CVE_AGEB": "629-4", "CVE_LOC": "4918", "NOM_LOC": "Lomas de San Miguel", "OID": 94965 }, "geometry": { "type": "Point", "coordinates": [ -116.73527777999756, 31.912777780289424 ] } },
{ "type": "Feature", "properties": { "CVE_ENT": "02", "CVE_MUN": "001", "CVE_AGEB": "629-4", "CVE_LOC": "4920", "NOM_LOC": "San Marcos", "OID": 94966 }, "geometry": { "type": "Point", "coordinates": [ -116.686388889997545, 31.996388890290216 ] } },
{ "type": "Feature", "properties": { "CVE_ENT": "02", "CVE_MUN": "001", "CVE_AGEB": "629-4", "CVE_LOC": "4921", "NOM_LOC": "El Tío", "OID": 94967 }, "geometry": { "type": "Point", "coordinates": [ -116.668055559997569, 31.975555560290012 ] } },
{ "type": "Feature", "properties": { "CVE_ENT": "02", "CVE_MUN": "001", "CVE_AGEB": "629-4", "CVE_LOC": "4922", "NOM_LOC": "Rancho Rodarte", "OID": 94968 }, "geometry": { "type": "Point", "coordinates": [ -116.671111109997582, 31.973333330289986 ] } },
{ "type": "Feature", "properties": { "CVE_ENT": "02", "CVE_MUN": "001", "CVE_AGEB": "629-4", "CVE_LOC": "4925", "NOM_LOC": "Cíbola del Mar", "OID": 94969 }, "geometry": { "type": "Point", "coordinates": [ -116.720833329997561, 31.902777780289309 ] } },
{ "type": "Feature", "properties": { "CVE_ENT": "02", "CVE_MUN": "001", "CVE_AGEB": "629-4", "CVE_LOC": "4926", "NOM_LOC": "Mesa del Carmen", "OID": 94970 }, "geometry": { "type": "Point", "coordinates": [ -116.744722219997556, 31.906666670289312 ] } },
{ "type": "Feature", "properties": { "CVE_ENT": "02", "CVE_MUN": "001", "CVE_AGEB": "629-4", "CVE_LOC": "4929", "NOM_LOC": "Rancho Valtierra", "OID": 94971 }, "geometry": { "type": "Point", "coordinates": [ -116.669444439997591, 31.986111110290157 ] } },
{ "type": "Feature", "properties": { "CVE_ENT": "02", "CVE_MUN": "001", "CVE_AGEB": "629-4", "CVE_LOC": "4930", "NOM_LOC": "Playa Cibola del Mar", "OID": 94972 }, "geometry": { "type": "Point", "coordinates": [ -116.732499999997557, 31.901666670289288 ] } },
{ "type": "Feature", "properties": { "CVE_ENT": "02", "CVE_MUN": "001", "CVE_AGEB": "629-4", "CVE_LOC": "4941", "NOM_LOC": "Rancho Floralicia", "OID": 94973 }, "geometry": { "type": "Point", "coordinates": [ -116.735555559997565, 31.962777780289915 ] } },
{ "type": "Feature", "properties": { "CVE_ENT": "02", "CVE_MUN": "001", "CVE_AGEB": "629-4", "CVE_LOC": "4944", "NOM_LOC": "Rancho Cantarranas", "OID": 94974 }, "geometry": { "type": "Point", "coordinates": [ -116.733888889997559, 31.951111110289766 ] } },
{ "type": "Feature", "properties": { "CVE_ENT": "02", "CVE_MUN": "001", "CVE_AGEB": "630-7", "CVE_LOC": "0171", "NOM_LOC": "Las Lomas", "OID": 94975 }, "geometry": { "type": "Point", "coordinates": [ -116.641111109997581, 31.993333330290202 ] } },
{ "type": "Feature", "properties": { "CVE_ENT": "02", "CVE_MUN": "001", "CVE_AGEB": "630-7", "CVE_LOC": "0271", "NOM_LOC": "Villa de Juárez (San Antonio de las Minas)", "OID": 94976 }, "geometry": { "type": "Point", "coordinates": [ -116.649444439997581, 31.967222220289916 ] } },
{ "type": "Feature", "properties": { "CVE_ENT": "02", "CVE_MUN": "001", "CVE_AGEB": "630-7", "CVE_LOC": "0347", "NOM_LOC": "Rancho Bakarta", "OID": 94977 }, "geometry": { "type": "Point", "coordinates": [ -116.586666669997584, 31.992222220290181 ] } },
{ "type": "Feature", "properties": { "CVE_ENT": "02", "CVE_MUN": "001", "CVE_AGEB": "630-7", "CVE_LOC": "0479", "NOM_LOC": "La Fortuna", "OID": 94978 }, "geometry": { "type": "Point", "coordinates": [ -116.618611109997573, 31.980000000290087 ] } },
{ "type": "Feature", "properties": { "CVE_ENT": "02", "CVE_MUN": "001", "CVE_AGEB": "630-7", "CVE_LOC": "0564", "NOM_LOC": "El Manzo", "OID": 94979 }, "geometry": { "type": "Point", "coordinates": [ -116.623611109997569, 31.978611110290018 ] } },
{ "type": "Feature", "properties": { "CVE_ENT": "02", "CVE_MUN": "001", "CVE_AGEB": "630-7", "CVE_LOC": "0585", "NOM_LOC": "El Mogor", "OID": 94980 }, "geometry": { "type": "Point", "coordinates": [ -116.601944439997581, 32.035833330290643 ] } },
{ "type": "Feature", "properties": { "CVE_ENT": "02", "CVE_MUN": "001", "CVE_AGEB": "630-7", "CVE_LOC": "0772", "NOM_LOC": "San Pedro [Parcela Veintidós]", "OID": 94981 }, "geometry": { "type": "Point", "coordinates": [ -116.628055559997577, 32.025000000290525 ] } },
{ "type": "Feature", "properties": { "CVE_ENT": "02", "CVE_MUN": "001", "CVE_AGEB": "630-7", "CVE_LOC": "1026", "NOM_LOC": "Las Ilusiones", "OID": 94982 }, "geometry": { "type": "Point", "coordinates": [ -116.632499999997563, 32.01444444029044 ] } },
{ "type": "Feature", "properties": { "CVE_ENT": "02", "CVE_MUN": "001", "CVE_AGEB": "630-7", "CVE_LOC": "1040", "NOM_LOC": "El Manzano", "OID": 94983 }, "geometry": { "type": "Point", "coordinates": [ -116.61638888999758, 32.02916667029055 ] } },
{ "type": "Feature", "properties": { "CVE_ENT": "02", "CVE_MUN": "001", "CVE_AGEB": "630-7", "CVE_LOC": "1084", "NOM_LOC": "San Pedro", "OID": 94984 }, "geometry": { "type": "Point", "coordinates": [ -116.62583332999759, 32.022222220290523 ] } },
{ "type": "Feature", "properties": { "CVE_ENT": "02", "CVE_MUN": "001", "CVE_AGEB": "630-7", "CVE_LOC": "1103", "NOM_LOC": "Tierra Santa", "OID": 94985 }, "geometry": { "type": "Point", "coordinates": [ -116.631944439997568, 32.037500000290677 ] } },
{ "type": "Feature", "properties": { "CVE_ENT": "02", "CVE_MUN": "001", "CVE_AGEB": "630-7", "CVE_LOC": "1362", "NOM_LOC": "Los Encinos", "OID": 94986 }, "geometry": { "type": "Point", "coordinates": [ -116.643055559997578, 31.986666670290134 ] } },
{ "type": "Feature", "properties": { "CVE_ENT": "02", "CVE_MUN": "001", "CVE_AGEB": "630-7", "CVE_LOC": "1534", "NOM_LOC": "Olivares Mexicanos", "OID": 94987 }, "geometry": { "type": "Point", "coordinates": [ -116.614722219997589, 32.049444440290777 ] } },
{ "type": "Feature", "properties": { "CVE_ENT": "02", "CVE_MUN": "001", "CVE_AGEB": "630-7", "CVE_LOC": "1782", "NOM_LOC": "San José", "OID": 94988 }, "geometry": { "type": "Point", "coordinates": [ -116.609166669997563, 31.979722220290064 ] } },
{ "type": "Feature", "properties": { "CVE_ENT": "02", "CVE_MUN": "001", "CVE_AGEB": "630-7", "CVE_LOC": "1850", "NOM_LOC": "Santa Cruz", "OID": 94989 }, "geometry": { "type": "Point", "coordinates": [ -116.637777779997577, 31.999166670290276 ] } },
{ "type": "Feature", "properties": { "CVE_ENT": "02", "CVE_MUN": "001", "CVE_AGEB": "630-7", "CVE_LOC": "1853", "NOM_LOC": "Santa Cruz", "OID": 94990 }, "geometry": { "type": "Point", "coordinates": [ -116.632777779997582, 32.002222220290292 ] } },
{ "type": "Feature", "properties": { "CVE_ENT": "02", "CVE_MUN": "001", "CVE_AGEB": "630-7", "CVE_LOC": "2505", "NOM_LOC": "San Gabriel", "OID": 94991 }, "geometry": { "type": "Point", "coordinates": [ -116.6602777799976, 31.966666670289907 ] } },
{ "type": "Feature", "properties": { "CVE_ENT": "02", "CVE_MUN": "001", "CVE_AGEB": "630-7", "CVE_LOC": "2506", "NOM_LOC": "Parcela Número Trece", "OID": 94992 }, "geometry": { "type": "Point", "coordinates": [ -116.656388889997572, 31.96444444028992 ] } },
{ "type": "Feature", "properties": { "CVE_ENT": "02", "CVE_MUN": "001", "CVE_AGEB": "630-7", "CVE_LOC": "2508", "NOM_LOC": "El Cimarrón", "OID": 94993 }, "geometry": { "type": "Point", "coordinates": [ -116.633055559997572, 31.963611110289893 ] } },
{ "type": "Feature", "properties": { "CVE_ENT": "02", "CVE_MUN": "001", "CVE_AGEB": "630-7", "CVE_LOC": "2509", "NOM_LOC": "Rancho Pueblito", "OID": 94994 }, "geometry": { "type": "Point", "coordinates": [ -116.643333329997574, 31.969444440289944 ] } },
{ "type": "Feature", "properties": { "CVE_ENT": "02", "CVE_MUN": "001", "CVE_AGEB": "630-7", "CVE_LOC": "2510", "NOM_LOC": "Campamento Abarim", "OID": 94995 }, "geometry": { "type": "Point", "coordinates": [ -116.643888889997598, 31.970833330290013 ] } },
{ "type": "Feature", "properties": { "CVE_ENT": "02", "CVE_MUN": "001", "CVE_AGEB": "630-7", "CVE_LOC": "2513", "NOM_LOC": "Tres Encinos", "OID": 94996 }, "geometry": { "type": "Point", "coordinates": [ -116.626388889997585, 31.971111110290007 ] } },
{ "type": "Feature", "properties": { "CVE_ENT": "02", "CVE_MUN": "001", "CVE_AGEB": "630-7", "CVE_LOC": "2518", "NOM_LOC": "Quinta Riviera (Rancho Rocha)", "OID": 94997 }, "geometry": { "type": "Point", "coordinates": [ -116.653888889997589, 31.97611111029002 ] } },
{ "type": "Feature", "properties": { "CVE_ENT": "02", "CVE_MUN": "001", "CVE_AGEB": "630-7", "CVE_LOC": "2519", "NOM_LOC": "Rancho Toscano", "OID": 94998 }, "geometry": { "type": "Point", "coordinates": [ -116.651388889997577, 31.978888890290076 ] } },
{ "type": "Feature", "properties": { "CVE_ENT": "02", "CVE_MUN": "001", "CVE_AGEB": "630-7", "CVE_LOC": "2521", "NOM_LOC": "Rancho Paricutín", "OID": 94999 }, "geometry": { "type": "Point", "coordinates": [ -116.647499999997564, 31.980555560290064 ] } },
{ "type": "Feature", "properties": { "CVE_ENT": "02", "CVE_MUN": "001", "CVE_AGEB": "630-7", "CVE_LOC": "2522", "NOM_LOC": "Rancho Toscano", "OID": 95000 }, "geometry": { "type": "Point", "coordinates": [ -116.645833329997586, 31.983611110290095 ] } },
{ "type": "Feature", "properties": { "CVE_ENT": "02", "CVE_MUN": "001", "CVE_AGEB": "630-7", "CVE_LOC": "2525", "NOM_LOC": "Los Olivos", "OID": 95001 }, "geometry": { "type": "Point", "coordinates": [ -116.635833329997595, 31.995000000290201 ] } },
{ "type": "Feature", "properties": { "CVE_ENT": "02", "CVE_MUN": "001", "CVE_AGEB": "630-7", "CVE_LOC": "2529", "NOM_LOC": "El Capulín", "OID": 95002 }, "geometry": { "type": "Point", "coordinates": [ -116.625555559997565, 32.023888890290543 ] } },
{ "type": "Feature", "properties": { "CVE_ENT": "02", "CVE_MUN": "001", "CVE_AGEB": "630-7", "CVE_LOC": "2531", "NOM_LOC": "Rancho Angélica (Piedras Pintas)", "OID": 95003 }, "geometry": { "type": "Point", "coordinates": [ -116.613888889997568, 32.021666670290486 ] } },
{ "type": "Feature", "properties": { "CVE_ENT": "02", "CVE_MUN": "001", "CVE_AGEB": "630-7", "CVE_LOC": "2537", "NOM_LOC": "María de los Milagros", "OID": 95004 }, "geometry": { "type": "Point", "coordinates": [ -116.614999999997579, 32.03222222029062 ] } },
{ "type": "Feature", "properties": { "CVE_ENT": "02", "CVE_MUN": "001", "CVE_AGEB": "630-7", "CVE_LOC": "2539", "NOM_LOC": "Lucio Blanco [Granjas Agrícolas]", "OID": 95005 }, "geometry": { "type": "Point", "coordinates": [ -116.662499999997593, 31.979722220290093 ] } },
{ "type": "Feature", "properties": { "CVE_ENT": "02", "CVE_MUN": "001", "CVE_AGEB": "630-7", "CVE_LOC": "2540", "NOM_LOC": "San Antonio [Viñedos]", "OID": 95006 }, "geometry": { "type": "Point", "coordinates": [ -116.662222219997588, 31.967777780289953 ] } },
{ "type": "Feature", "properties": { "CVE_ENT": "02", "CVE_MUN": "001", "CVE_AGEB": "630-7", "CVE_LOC": "2543", "NOM_LOC": "Los Olivos", "OID": 95007 }, "geometry": { "type": "Point", "coordinates": [ -116.665833329997582, 31.970000000289961 ] } },
{ "type": "Feature", "properties": { "CVE_ENT": "02", "CVE_MUN": "001", "CVE_AGEB": "630-7", "CVE_LOC": "2550", "NOM_LOC": "Rancho Carrillo", "OID": 95008 }, "geometry": { "type": "Point", "coordinates": [ -116.658888889997584, 31.989722220290204 ] } },
{ "type": "Feature", "properties": { "CVE_ENT": "02", "CVE_MUN": "001", "CVE_AGEB": "630-7", "CVE_LOC": "2552", "NOM_LOC": "Chivatillo (Los Galván)", "OID": 95009 }, "geometry": { "type": "Point", "coordinates": [ -116.634722219997585, 32.018611110290472 ] } },
{ "type": "Feature", "properties": { "CVE_ENT": "02", "CVE_MUN": "001", "CVE_AGEB": "630-7", "CVE_LOC": "2553", "NOM_LOC": "El Secreto", "OID": 95010 }, "geometry": { "type": "Point", "coordinates": [ -116.6602777799976, 32.00555556029029 ] } },
{ "type": "Feature", "properties": { "CVE_ENT": "02", "CVE_MUN": "001", "CVE_AGEB": "630-7", "CVE_LOC": "2555", "NOM_LOC": "Rancho Luis", "OID": 95011 }, "geometry": { "type": "Point", "coordinates": [ -116.665277779997567, 31.986944440290134 ] } },
{ "type": "Feature", "properties": { "CVE_ENT": "02", "CVE_MUN": "001", "CVE_AGEB": "630-7", "CVE_LOC": "2566", "NOM_LOC": "Rancho David Ojeda", "OID": 95012 }, "geometry": { "type": "Point", "coordinates": [ -116.669722219997581, 32.01305556029039 ] } },
{ "type": "Feature", "properties": { "CVE_ENT": "02", "CVE_MUN": "001", "CVE_AGEB": "630-7", "CVE_LOC": "2567", "NOM_LOC": "Familia Alarcón", "OID": 95013 }, "geometry": { "type": "Point", "coordinates": [ -116.668888889997589, 32.015277780290447 ] } },
{ "type": "Feature", "properties": { "CVE_ENT": "02", "CVE_MUN": "001", "CVE_AGEB": "630-7", "CVE_LOC": "2569", "NOM_LOC": "Los Medina", "OID": 95014 }, "geometry": { "type": "Point", "coordinates": [ -116.658888889997584, 32.012222220290383 ] } },
{ "type": "Feature", "properties": { "CVE_ENT": "02", "CVE_MUN": "001", "CVE_AGEB": "630-7", "CVE_LOC": "2577", "NOM_LOC": "Aurora Cárdenas", "OID": 95015 }, "geometry": { "type": "Point", "coordinates": [ -116.643333329997574, 32.018888890290491 ] } },
{ "type": "Feature", "properties": { "CVE_ENT": "02", "CVE_MUN": "001", "CVE_AGEB": "630-7", "CVE_LOC": "2580", "NOM_LOC": "Rancho Valencia", "OID": 95016 }, "geometry": { "type": "Point", "coordinates": [ -116.671944439997603, 32.031111110290588 ] } },
{ "type": "Feature", "properties": { "CVE_ENT": "02", "CVE_MUN": "001", "CVE_AGEB": "630-7", "CVE_LOC": "2581", "NOM_LOC": "La Soledad", "OID": 95017 }, "geometry": { "type": "Point", "coordinates": [ -116.662777779997583, 32.031111110290588 ] } },
{ "type": "Feature", "properties": { "CVE_ENT": "02", "CVE_MUN": "001", "CVE_AGEB": "630-7", "CVE_LOC": "2584", "NOM_LOC": "La Morita", "OID": 95018 }, "geometry": { "type": "Point", "coordinates": [ -116.665277779997567, 32.026944440290549 ] } },
{ "type": "Feature", "properties": { "CVE_ENT": "02", "CVE_MUN": "001", "CVE_AGEB": "630-7", "CVE_LOC": "2589", "NOM_LOC": "Los Gavilanes", "OID": 95019 }, "geometry": { "type": "Point", "coordinates": [ -116.630555559997589, 32.037500000290706 ] } },
{ "type": "Feature", "properties": { "CVE_ENT": "02", "CVE_MUN": "001", "CVE_AGEB": "630-7", "CVE_LOC": "2590", "NOM_LOC": "Rancho Toscano", "OID": 95020 }, "geometry": { "type": "Point", "coordinates": [ -116.649722219997585, 31.976944440290033 ] } },
{ "type": "Feature", "properties": { "CVE_ENT": "02", "CVE_MUN": "001", "CVE_AGEB": "630-7", "CVE_LOC": "2592", "NOM_LOC": "Parcela Ochenta y Cinco", "OID": 95021 }, "geometry": { "type": "Point", "coordinates": [ -116.662777779997583, 32.023055560290516 ] } },
{ "type": "Feature", "properties": { "CVE_ENT": "02", "CVE_MUN": "001", "CVE_AGEB": "630-7", "CVE_LOC": "2778", "NOM_LOC": "Rancho Villanueva", "OID": 95022 }, "geometry": { "type": "Point", "coordinates": [ -116.649444439997581, 31.98166667029011 ] } },
{ "type": "Feature", "properties": { "CVE_ENT": "02", "CVE_MUN": "001", "CVE_AGEB": "630-7", "CVE_LOC": "2832", "NOM_LOC": "La Reina", "OID": 95023 }, "geometry": { "type": "Point", "coordinates": [ -116.635555559997584, 31.996388890290216 ] } },
{ "type": "Feature", "properties": { "CVE_ENT": "02", "CVE_MUN": "001", "CVE_AGEB": "630-7", "CVE_LOC": "2982", "NOM_LOC": "Rancho Paredes", "OID": 95024 }, "geometry": { "type": "Point", "coordinates": [ -116.636388889997576, 32.043888890290759 ] } },
{ "type": "Feature", "properties": { "CVE_ENT": "02", "CVE_MUN": "001", "CVE_AGEB": "630-7", "CVE_LOC": "3411", "NOM_LOC": "Familia Arroyo Cota", "OID": 95025 }, "geometry": { "type": "Point", "coordinates": [ -116.640555559997566, 31.988888890290191 ] } },
{ "type": "Feature", "properties": { "CVE_ENT": "02", "CVE_MUN": "001", "CVE_AGEB": "630-7", "CVE_LOC": "3426", "NOM_LOC": "Familia Candela", "OID": 95026 }, "geometry": { "type": "Point", "coordinates": [ -116.612777779997586, 32.025555560290528 ] } },
{ "type": "Feature", "properties": { "CVE_ENT": "02", "CVE_MUN": "001", "CVE_AGEB": "630-7", "CVE_LOC": "3429", "NOM_LOC": "Familia Cárdenas", "OID": 95027 }, "geometry": { "type": "Point", "coordinates": [ -116.646666669997572, 32.017500000290461 ] } },
{ "type": "Feature", "properties": { "CVE_ENT": "02", "CVE_MUN": "001", "CVE_AGEB": "630-7", "CVE_LOC": "3432", "NOM_LOC": "Familia Carreón", "OID": 95028 }, "geometry": { "type": "Point", "coordinates": [ -116.636944439997578, 32.040000000290689 ] } },
{ "type": "Feature", "properties": { "CVE_ENT": "02", "CVE_MUN": "001", "CVE_AGEB": "630-7", "CVE_LOC": "3435", "NOM_LOC": "Familia Ceniceros", "OID": 95029 }, "geometry": { "type": "Point", "coordinates": [ -116.672777779997574, 32.030277780290575 ] } },
{ "type": "Feature", "properties": { "CVE_ENT": "02", "CVE_MUN": "001", "CVE_AGEB": "630-7", "CVE_LOC": "3441", "NOM_LOC": "Familia Esparza", "OID": 95030 }, "geometry": { "type": "Point", "coordinates": [ -116.647222219997587, 32.044444440290725 ] } },
{ "type": "Feature", "properties": { "CVE_ENT": "02", "CVE_MUN": "001", "CVE_AGEB": "630-7", "CVE_LOC": "3486", "NOM_LOC": "Familia Llamas", "OID": 95031 }, "geometry": { "type": "Point", "coordinates": [ -116.657222219997564, 32.016666670290441 ] } },
{ "type": "Feature", "properties": { "CVE_ENT": "02", "CVE_MUN": "001", "CVE_AGEB": "630-7", "CVE_LOC": "3493", "NOM_LOC": "Familia Marchena", "OID": 95032 }, "geometry": { "type": "Point", "coordinates": [ -116.674722219997548, 32.021666670290486 ] } },
{ "type": "Feature", "properties": { "CVE_ENT": "02", "CVE_MUN": "001", "CVE_AGEB": "630-7", "CVE_LOC": "3504", "NOM_LOC": "Familia Méndez Pantoja", "OID": 95033 }, "geometry": { "type": "Point", "coordinates": [ -116.646388889997581, 32.045833330290748 ] } },
{ "type": "Feature", "properties": { "CVE_ENT": "02", "CVE_MUN": "001", "CVE_AGEB": "630-7", "CVE_LOC": "3537", "NOM_LOC": "Familia Reséndiz", "OID": 95034 }, "geometry": { "type": "Point", "coordinates": [ -116.657222219997564, 32.036944440290668 ] } },
{ "type": "Feature", "properties": { "CVE_ENT": "02", "CVE_MUN": "001", "CVE_AGEB": "630-7", "CVE_LOC": "3551", "NOM_LOC": "Familia Rouzand Noriega", "OID": 95035 }, "geometry": { "type": "Point", "coordinates": [ -116.639999999997571, 31.984166670290136 ] } },
{ "type": "Feature", "properties": { "CVE_ENT": "02", "CVE_MUN": "001", "CVE_AGEB": "630-7", "CVE_LOC": "3591", "NOM_LOC": "Familia Zince", "OID": 95036 }, "geometry": { "type": "Point", "coordinates": [ -116.626388889997585, 31.976388890290014 ] } },
{ "type": "Feature", "properties": { "CVE_ENT": "02", "CVE_MUN": "001", "CVE_AGEB": "630-7", "CVE_LOC": "3593", "NOM_LOC": "Las Lomas", "OID": 95037 }, "geometry": { "type": "Point", "coordinates": [ -116.626388889997585, 31.989722220290194 ] } },
{ "type": "Feature", "properties": { "CVE_ENT": "02", "CVE_MUN": "001", "CVE_AGEB": "630-7", "CVE_LOC": "3646", "NOM_LOC": "Mochistlan", "OID": 95038 }, "geometry": { "type": "Point", "coordinates": [ -116.672777779997574, 32.022777780290525 ] } },
{ "type": "Feature", "properties": { "CVE_ENT": "02", "CVE_MUN": "001", "CVE_AGEB": "630-7", "CVE_LOC": "3817", "NOM_LOC": "El Pedregal", "OID": 95039 }, "geometry": { "type": "Point", "coordinates": [ -116.665277779997538, 32.031944440290566 ] } },
{ "type": "Feature", "properties": { "CVE_ENT": "02", "CVE_MUN": "001", "CVE_AGEB": "630-7", "CVE_LOC": "3821", "NOM_LOC": "Las Perlitas", "OID": 95040 }, "geometry": { "type": "Point", "coordinates": [ -116.632777779997582, 32.017777780290459 ] } },
{ "type": "Feature", "properties": { "CVE_ENT": "02", "CVE_MUN": "001", "CVE_AGEB": "630-7", "CVE_LOC": "3861", "NOM_LOC": "Rancho Cabrera", "OID": 95041 }, "geometry": { "type": "Point", "coordinates": [ -116.65444443999759, 31.975555560290026 ] } },
{ "type": "Feature", "properties": { "CVE_ENT": "02", "CVE_MUN": "001", "CVE_AGEB": "630-7", "CVE_LOC": "3862", "NOM_LOC": "Rancho California", "OID": 95042 }, "geometry": { "type": "Point", "coordinates": [ -116.630555559997589, 32.010000000290404 ] } },
{ "type": "Feature", "properties": { "CVE_ENT": "02", "CVE_MUN": "001", "CVE_AGEB": "630-7", "CVE_LOC": "3894", "NOM_LOC": "El Bosque", "OID": 95043 }, "geometry": { "type": "Point", "coordinates": [ -116.666388889997577, 32.013888890290417 ] } },
{ "type": "Feature", "properties": { "CVE_ENT": "02", "CVE_MUN": "001", "CVE_AGEB": "630-7", "CVE_LOC": "3897", "NOM_LOC": "El Carruaje", "OID": 95044 }, "geometry": { "type": "Point", "coordinates": [ -116.662499999997593, 32.012500000290416 ] } },
{ "type": "Feature", "properties": { "CVE_ENT": "02", "CVE_MUN": "001", "CVE_AGEB": "630-7", "CVE_LOC": "3923", "NOM_LOC": "El Palenque Jalisco", "OID": 95045 }, "geometry": { "type": "Point", "coordinates": [ -116.640277779997589, 31.979722220290064 ] } },
{ "type": "Feature", "properties": { "CVE_ENT": "02", "CVE_MUN": "001", "CVE_AGEB": "630-7", "CVE_LOC": "3933", "NOM_LOC": "El Rincón", "OID": 95046 }, "geometry": { "type": "Point", "coordinates": [ -116.608055559997581, 32.003055560290299 ] } },
{ "type": "Feature", "properties": { "CVE_ENT": "02", "CVE_MUN": "001", "CVE_AGEB": "630-7", "CVE_LOC": "3937", "NOM_LOC": "Rancho García", "OID": 95047 }, "geometry": { "type": "Point", "coordinates": [ -116.674166669997589, 32.02361111029051 ] } },
{ "type": "Feature", "properties": { "CVE_ENT": "02", "CVE_MUN": "001", "CVE_AGEB": "630-7", "CVE_LOC": "3944", "NOM_LOC": "Rancho Fátima", "OID": 95048 }, "geometry": { "type": "Point", "coordinates": [ -116.637777779997577, 31.990000000290149 ] } },
{ "type": "Feature", "properties": { "CVE_ENT": "02", "CVE_MUN": "001", "CVE_AGEB": "630-7", "CVE_LOC": "3968", "NOM_LOC": "La Curva", "OID": 95049 }, "geometry": { "type": "Point", "coordinates": [ -116.658611109997565, 31.965000000289923 ] } },
{ "type": "Feature", "properties": { "CVE_ENT": "02", "CVE_MUN": "001", "CVE_AGEB": "630-7", "CVE_LOC": "3986", "NOM_LOC": "Lagos el Paraíso", "OID": 95050 }, "geometry": { "type": "Point", "coordinates": [ -116.642499999997582, 31.970833330289999 ] } },
{ "type": "Feature", "properties": { "CVE_ENT": "02", "CVE_MUN": "001", "CVE_AGEB": "630-7", "CVE_LOC": "4015", "NOM_LOC": "Los Dos Hermanos", "OID": 95051 }, "geometry": { "type": "Point", "coordinates": [ -116.668055559997569, 32.027500000290551 ] } },
{ "type": "Feature", "properties": { "CVE_ENT": "02", "CVE_MUN": "001", "CVE_AGEB": "630-7", "CVE_LOC": "4016", "NOM_LOC": "Los Encinos", "OID": 95052 }, "geometry": { "type": "Point", "coordinates": [ -116.659166669997589, 31.963888890289926 ] } },
{ "type": "Feature", "properties": { "CVE_ENT": "02", "CVE_MUN": "001", "CVE_AGEB": "630-7", "CVE_LOC": "4027", "NOM_LOC": "Los Pinos", "OID": 95053 }, "geometry": { "type": "Point", "coordinates": [ -116.633888889997564, 31.96277778028993 ] } },
{ "type": "Feature", "properties": { "CVE_ENT": "02", "CVE_MUN": "001", "CVE_AGEB": "630-7", "CVE_LOC": "4031", "NOM_LOC": "Los Vañales", "OID": 95054 }, "geometry": { "type": "Point", "coordinates": [ -116.650277779997566, 32.018888890290491 ] } },
{ "type": "Feature", "properties": { "CVE_ENT": "02", "CVE_MUN": "001", "CVE_AGEB": "630-7", "CVE_LOC": "4035", "NOM_LOC": "Rancho Mandi", "OID": 95055 }, "geometry": { "type": "Point", "coordinates": [ -116.620833329997566, 32.015555560290444 ] } },
{ "type": "Feature", "properties": { "CVE_ENT": "02", "CVE_MUN": "001", "CVE_AGEB": "630-7", "CVE_LOC": "4047", "NOM_LOC": "Rancho Nevares", "OID": 95056 }, "geometry": { "type": "Point", "coordinates": [ -116.6752777799976, 32.008888890290358 ] } },
{ "type": "Feature", "properties": { "CVE_ENT": "02", "CVE_MUN": "001", "CVE_AGEB": "630-7", "CVE_LOC": "4049", "NOM_LOC": "Rancho Nuevo Día", "OID": 95057 }, "geometry": { "type": "Point", "coordinates": [ -116.63027777999757, 32.038888890290693 ] } },
{ "type": "Feature", "properties": { "CVE_ENT": "02", "CVE_MUN": "001", "CVE_AGEB": "630-7", "CVE_LOC": "4050", "NOM_LOC": "Rancho Ortegas", "OID": 95058 }, "geometry": { "type": "Point", "coordinates": [ -116.672777779997574, 32.016666670290441 ] } },
{ "type": "Feature", "properties": { "CVE_ENT": "02", "CVE_MUN": "001", "CVE_AGEB": "630-7", "CVE_LOC": "4072", "NOM_LOC": "San Fernando", "OID": 95059 }, "geometry": { "type": "Point", "coordinates": [ -116.654999999997571, 32.04083333029071 ] } },
{ "type": "Feature", "properties": { "CVE_ENT": "02", "CVE_MUN": "001", "CVE_AGEB": "630-7", "CVE_LOC": "4086", "NOM_LOC": "San Yordi", "OID": 95060 }, "geometry": { "type": "Point", "coordinates": [ -116.648333329997584, 32.013888890290417 ] } },
{ "type": "Feature", "properties": { "CVE_ENT": "02", "CVE_MUN": "001", "CVE_AGEB": "630-7", "CVE_LOC": "4090", "NOM_LOC": "Santa Isabel", "OID": 95061 }, "geometry": { "type": "Point", "coordinates": [ -116.640277779997589, 32.043611110290691 ] } },
{ "type": "Feature", "properties": { "CVE_ENT": "02", "CVE_MUN": "001", "CVE_AGEB": "630-7", "CVE_LOC": "4091", "NOM_LOC": "Santa Lidia", "OID": 95062 }, "geometry": { "type": "Point", "coordinates": [ -116.646111109997591, 32.010555560290392 ] } },
{ "type": "Feature", "properties": { "CVE_ENT": "02", "CVE_MUN": "001", "CVE_AGEB": "630-7", "CVE_LOC": "4123", "NOM_LOC": "El Recuerdo", "OID": 95063 }, "geometry": { "type": "Point", "coordinates": [ -116.639999999997571, 32.045277780290725 ] } },
{ "type": "Feature", "properties": { "CVE_ENT": "02", "CVE_MUN": "001", "CVE_AGEB": "630-7", "CVE_LOC": "4139", "NOM_LOC": "San Pedro (Familia Rico)", "OID": 95064 }, "geometry": { "type": "Point", "coordinates": [ -116.626388889997585, 32.019166670290453 ] } },
{ "type": "Feature", "properties": { "CVE_ENT": "02", "CVE_MUN": "001", "CVE_AGEB": "630-7", "CVE_LOC": "4140", "NOM_LOC": "San Pedro (Parcela Veintitrés)", "OID": 95065 }, "geometry": { "type": "Point", "coordinates": [ -116.624444439997589, 32.026666670290524 ] } },
{ "type": "Feature", "properties": { "CVE_ENT": "02", "CVE_MUN": "001", "CVE_AGEB": "630-7", "CVE_LOC": "4147", "NOM_LOC": "Silva (El Secreto)", "OID": 95066 }, "geometry": { "type": "Point", "coordinates": [ -116.664444439997581, 31.988055560290164 ] } },
{ "type": "Feature", "properties": { "CVE_ENT": "02", "CVE_MUN": "001", "CVE_AGEB": "630-7", "CVE_LOC": "4153", "NOM_LOC": "Ninguno", "OID": 95067 }, "geometry": { "type": "Point", "coordinates": [ -116.61111110999758, 32.026666670290552 ] } },
{ "type": "Feature", "properties": { "CVE_ENT": "02", "CVE_MUN": "001", "CVE_AGEB": "630-7", "CVE_LOC": "4158", "NOM_LOC": "Ninguno", "OID": 95068 }, "geometry": { "type": "Point", "coordinates": [ -116.652222219997569, 32.033888890290655 ] } },
{ "type": "Feature", "properties": { "CVE_ENT": "02", "CVE_MUN": "001", "CVE_AGEB": "630-7", "CVE_LOC": "4160", "NOM_LOC": "Ninguno", "OID": 95069 }, "geometry": { "type": "Point", "coordinates": [ -116.635277779997566, 31.998888890290292 ] } },
{ "type": "Feature", "properties": { "CVE_ENT": "02", "CVE_MUN": "001", "CVE_AGEB": "630-7", "CVE_LOC": "4162", "NOM_LOC": "Ninguno", "OID": 95070 }, "geometry": { "type": "Point", "coordinates": [ -116.644444439997585, 31.977222220290052 ] } },
{ "type": "Feature", "properties": { "CVE_ENT": "02", "CVE_MUN": "001", "CVE_AGEB": "630-7", "CVE_LOC": "4164", "NOM_LOC": "Ninguno", "OID": 95071 }, "geometry": { "type": "Point", "coordinates": [ -116.627499999997596, 31.975833330290051 ] } },
{ "type": "Feature", "properties": { "CVE_ENT": "02", "CVE_MUN": "001", "CVE_AGEB": "630-7", "CVE_LOC": "4166", "NOM_LOC": "Ninguno", "OID": 95072 }, "geometry": { "type": "Point", "coordinates": [ -116.63444443999758, 31.965833330289911 ] } },
{ "type": "Feature", "properties": { "CVE_ENT": "02", "CVE_MUN": "001", "CVE_AGEB": "630-7", "CVE_LOC": "4201", "NOM_LOC": "Rancho de la Garza", "OID": 95073 }, "geometry": { "type": "Point", "coordinates": [ -116.625555559997565, 32.025277780290537 ] } },
{ "type": "Feature", "properties": { "CVE_ENT": "02", "CVE_MUN": "001", "CVE_AGEB": "630-7", "CVE_LOC": "4202", "NOM_LOC": "Ninguno", "OID": 95074 }, "geometry": { "type": "Point", "coordinates": [ -116.662777779997583, 32.035277780290635 ] } },
{ "type": "Feature", "properties": { "CVE_ENT": "02", "CVE_MUN": "001", "CVE_AGEB": "631-1", "CVE_LOC": "0374", "NOM_LOC": "Aguaje Escondido", "OID": 95075 }, "geometry": { "type": "Point", "coordinates": [ -116.588333329997582, 32.055277780290837 ] } },
{ "type": "Feature", "properties": { "CVE_ENT": "02", "CVE_MUN": "001", "CVE_AGEB": "631-1", "CVE_LOC": "3906", "NOM_LOC": "El Dorado", "OID": 95076 }, "geometry": { "type": "Point", "coordinates": [ -116.55722221999757, 32.048333330290767 ] } },
{ "type": "Feature", "properties": { "CVE_ENT": "02", "CVE_MUN": "001", "CVE_AGEB": "632-6", "CVE_LOC": "0037", "NOM_LOC": "Rancho Almaraz", "OID": 95077 }, "geometry": { "type": "Point", "coordinates": [ -116.32083332999764, 31.958333330289847 ] } },
{ "type": "Feature", "properties": { "CVE_ENT": "02", "CVE_MUN": "001", "CVE_AGEB": "632-6", "CVE_LOC": "0191", "NOM_LOC": "Real del Castillo Viejo", "OID": 95078 }, "geometry": { "type": "Point", "coordinates": [ -116.349722219997631, 32.00250000029029 ] } },
{ "type": "Feature", "properties": { "CVE_ENT": "02", "CVE_MUN": "001", "CVE_AGEB": "632-6", "CVE_LOC": "0257", "NOM_LOC": "Los Gatos (Los House)", "OID": 95079 }, "geometry": { "type": "Point", "coordinates": [ -116.338611109997643, 31.977222220290017 ] } },
{ "type": "Feature", "properties": { "CVE_ENT": "02", "CVE_MUN": "001", "CVE_AGEB": "632-6", "CVE_LOC": "0355", "NOM_LOC": "Buenos Aires (Rancho Terríquez)", "OID": 95080 }, "geometry": { "type": "Point", "coordinates": [ -116.317777779997627, 31.953055560289808 ] } },
{ "type": "Feature", "properties": { "CVE_ENT": "02", "CVE_MUN": "001", "CVE_AGEB": "632-6", "CVE_LOC": "0462", "NOM_LOC": "Rancho Parma", "OID": 95081 }, "geometry": { "type": "Point", "coordinates": [ -116.345555559997635, 31.993055560290177 ] } },
{ "type": "Feature", "properties": { "CVE_ENT": "02", "CVE_MUN": "001", "CVE_AGEB": "632-6", "CVE_LOC": "0535", "NOM_LOC": "La Laguna", "OID": 95082 }, "geometry": { "type": "Point", "coordinates": [ -116.290833329997639, 31.979444440290095 ] } },
{ "type": "Feature", "properties": { "CVE_ENT": "02", "CVE_MUN": "001", "CVE_AGEB": "632-6", "CVE_LOC": "0623", "NOM_LOC": "Las Manzanas", "OID": 95083 }, "geometry": { "type": "Point", "coordinates": [ -116.317222219997646, 31.993333330290202 ] } },
{ "type": "Feature", "properties": { "CVE_ENT": "02", "CVE_MUN": "001", "CVE_AGEB": "632-6", "CVE_LOC": "0818", "NOM_LOC": "Tres Estrellas", "OID": 95084 }, "geometry": { "type": "Point", "coordinates": [ -116.270555559997632, 31.975000000290024 ] } },
{ "type": "Feature", "properties": { "CVE_ENT": "02", "CVE_MUN": "001", "CVE_AGEB": "632-6", "CVE_LOC": "0832", "NOM_LOC": "Rancho Yorba", "OID": 95085 }, "geometry": { "type": "Point", "coordinates": [ -116.297222219997622, 31.97194444028997 ] } },
{ "type": "Feature", "properties": { "CVE_ENT": "02", "CVE_MUN": "001", "CVE_AGEB": "632-6", "CVE_LOC": "2106", "NOM_LOC": "Santa María (Rancho del Patuto)", "OID": 95086 }, "geometry": { "type": "Point", "coordinates": [ -116.300555559997633, 31.959444440289868 ] } },
{ "type": "Feature", "properties": { "CVE_ENT": "02", "CVE_MUN": "001", "CVE_AGEB": "632-6", "CVE_LOC": "2114", "NOM_LOC": "Francisco Cota", "OID": 95087 }, "geometry": { "type": "Point", "coordinates": [ -116.314166669997633, 31.950833330289758 ] } },
{ "type": "Feature", "properties": { "CVE_ENT": "02", "CVE_MUN": "001", "CVE_AGEB": "632-6", "CVE_LOC": "2117", "NOM_LOC": "Vicente González", "OID": 95088 }, "geometry": { "type": "Point", "coordinates": [ -116.303055559997631, 31.973611110290005 ] } },
{ "type": "Feature", "properties": { "CVE_ENT": "02", "CVE_MUN": "001", "CVE_AGEB": "632-6", "CVE_LOC": "2118", "NOM_LOC": "Familia Terríquez (Juan Manuel Terríquez)", "OID": 95089 }, "geometry": { "type": "Point", "coordinates": [ -116.329999999997625, 31.952777780289804 ] } },
{ "type": "Feature", "properties": { "CVE_ENT": "02", "CVE_MUN": "001", "CVE_AGEB": "632-6", "CVE_LOC": "2121", "NOM_LOC": "Manuel Flores", "OID": 95090 }, "geometry": { "type": "Point", "coordinates": [ -116.319166669997628, 31.964166670289906 ] } },
{ "type": "Feature", "properties": { "CVE_ENT": "02", "CVE_MUN": "001", "CVE_AGEB": "632-6", "CVE_LOC": "2123", "NOM_LOC": "Salvador Jáuregui", "OID": 95091 }, "geometry": { "type": "Point", "coordinates": [ -116.339166669997624, 31.977222220290052 ] } },
{ "type": "Feature", "properties": { "CVE_ENT": "02", "CVE_MUN": "001", "CVE_AGEB": "632-6", "CVE_LOC": "2126", "NOM_LOC": "Santa Rosa", "OID": 95092 }, "geometry": { "type": "Point", "coordinates": [ -116.337777779997623, 31.973611110290005 ] } },
{ "type": "Feature", "properties": { "CVE_ENT": "02", "CVE_MUN": "001", "CVE_AGEB": "632-6", "CVE_LOC": "2127", "NOM_LOC": "Manuel Grijalva", "OID": 95093 }, "geometry": { "type": "Point", "coordinates": [ -116.32972221999762, 31.973333330289986 ] } },
{ "type": "Feature", "properties": { "CVE_ENT": "02", "CVE_MUN": "001", "CVE_AGEB": "632-6", "CVE_LOC": "2130", "NOM_LOC": "Familia Terríquez (Jorge Terríquez)", "OID": 95094 }, "geometry": { "type": "Point", "coordinates": [ -116.328611109997624, 31.950000000289769 ] } },
{ "type": "Feature", "properties": { "CVE_ENT": "02", "CVE_MUN": "001", "CVE_AGEB": "632-6", "CVE_LOC": "2131", "NOM_LOC": "Manuel Quintero", "OID": 95095 }, "geometry": { "type": "Point", "coordinates": [ -116.332499999997637, 31.960833330289873 ] } },
{ "type": "Feature", "properties": { "CVE_ENT": "02", "CVE_MUN": "001", "CVE_AGEB": "632-6", "CVE_LOC": "2751", "NOM_LOC": "Doble L", "OID": 95096 }, "geometry": { "type": "Point", "coordinates": [ -116.316388889997626, 31.969444440289969 ] } },
{ "type": "Feature", "properties": { "CVE_ENT": "02", "CVE_MUN": "001", "CVE_AGEB": "632-6", "CVE_LOC": "2835", "NOM_LOC": "Los Velázquez (Parcela Seis)", "OID": 95097 }, "geometry": { "type": "Point", "coordinates": [ -116.30611110999763, 31.981944440290135 ] } },
{ "type": "Feature", "properties": { "CVE_ENT": "02", "CVE_MUN": "001", "CVE_AGEB": "632-6", "CVE_LOC": "2836", "NOM_LOC": "Mata Cuervo", "OID": 95098 }, "geometry": { "type": "Point", "coordinates": [ -116.304722219997629, 31.993333330290213 ] } },
{ "type": "Feature", "properties": { "CVE_ENT": "02", "CVE_MUN": "001", "CVE_AGEB": "632-6", "CVE_LOC": "2986", "NOM_LOC": "El Apache Catorce", "OID": 95099 }, "geometry": { "type": "Point", "coordinates": [ -116.336666669997641, 31.980000000290087 ] } },
{ "type": "Feature", "properties": { "CVE_ENT": "02", "CVE_MUN": "001", "CVE_AGEB": "632-6", "CVE_LOC": "3272", "NOM_LOC": "Aguaje del Sapo", "OID": 95100 }, "geometry": { "type": "Point", "coordinates": [ -116.272499999997635, 32.001944440290309 ] } },
{ "type": "Feature", "properties": { "CVE_ENT": "02", "CVE_MUN": "001", "CVE_AGEB": "632-6", "CVE_LOC": "3818", "NOM_LOC": "Pedro Careaga", "OID": 95101 }, "geometry": { "type": "Point", "coordinates": [ -116.31972221999763, 31.955000000289807 ] } },
{ "type": "Feature", "properties": { "CVE_ENT": "02", "CVE_MUN": "001", "CVE_AGEB": "632-6", "CVE_LOC": "4039", "NOM_LOC": "Martín Jiménez", "OID": 95102 }, "geometry": { "type": "Point", "coordinates": [ -116.300555559997633, 31.960555560289858 ] } },
{ "type": "Feature", "properties": { "CVE_ENT": "02", "CVE_MUN": "001", "CVE_AGEB": "632-6", "CVE_LOC": "4077", "NOM_LOC": "San Joaquín", "OID": 95103 }, "geometry": { "type": "Point", "coordinates": [ -116.319166669997628, 31.985277780290129 ] } },
{ "type": "Feature", "properties": { "CVE_ENT": "02", "CVE_MUN": "001", "CVE_AGEB": "632-6", "CVE_LOC": "4483", "NOM_LOC": "Héctor Santos Ángulo", "OID": 95104 }, "geometry": { "type": "Point", "coordinates": [ -116.328055559997622, 31.970000000289961 ] } },
{ "type": "Feature", "properties": { "CVE_ENT": "02", "CVE_MUN": "001", "CVE_AGEB": "632-6", "CVE_LOC": "4484", "NOM_LOC": "Rancho Victoria", "OID": 95105 }, "geometry": { "type": "Point", "coordinates": [ -116.323888889997633, 31.961111110289906 ] } },
{ "type": "Feature", "properties": { "CVE_ENT": "02", "CVE_MUN": "001", "CVE_AGEB": "632-6", "CVE_LOC": "4678", "NOM_LOC": "Ninguno", "OID": 95106 }, "geometry": { "type": "Point", "coordinates": [ -116.308055559997626, 31.984166670290136 ] } },
{ "type": "Feature", "properties": { "CVE_ENT": "02", "CVE_MUN": "001", "CVE_AGEB": "632-6", "CVE_LOC": "4679", "NOM_LOC": "San Francisco", "OID": 95107 }, "geometry": { "type": "Point", "coordinates": [ -116.326666669997621, 31.965833330289897 ] } },
{ "type": "Feature", "properties": { "CVE_ENT": "02", "CVE_MUN": "001", "CVE_AGEB": "632-6", "CVE_LOC": "4696", "NOM_LOC": "Ninguno", "OID": 95108 }, "geometry": { "type": "Point", "coordinates": [ -116.316666669997645, 31.983333330290101 ] } },
{ "type": "Feature", "properties": { "CVE_ENT": "02", "CVE_MUN": "001", "CVE_AGEB": "632-6", "CVE_LOC": "4697", "NOM_LOC": "Ninguno", "OID": 95109 }, "geometry": { "type": "Point", "coordinates": [ -116.333055559997646, 31.960555560289887 ] } },
{ "type": "Feature", "properties": { "CVE_ENT": "02", "CVE_MUN": "001", "CVE_AGEB": "632-6", "CVE_LOC": "4773", "NOM_LOC": "Los Barrancos", "OID": 95110 }, "geometry": { "type": "Point", "coordinates": [ -116.333333329997629, 31.96194444028988 ] } },
{ "type": "Feature", "properties": { "CVE_ENT": "02", "CVE_MUN": "001", "CVE_AGEB": "632-6", "CVE_LOC": "4960", "NOM_LOC": "Los Nogales", "OID": 95111 }, "geometry": { "type": "Point", "coordinates": [ -116.311111109997626, 31.990833330290162 ] } },
{ "type": "Feature", "properties": { "CVE_ENT": "02", "CVE_MUN": "001", "CVE_AGEB": "632-6", "CVE_LOC": "5075", "NOM_LOC": "Antonio Terríquez", "OID": 95112 }, "geometry": { "type": "Point", "coordinates": [ -116.320555559997629, 31.952777780289804 ] } },
{ "type": "Feature", "properties": { "CVE_ENT": "02", "CVE_MUN": "001", "CVE_AGEB": "633-0", "CVE_LOC": "0289", "NOM_LOC": "Arroyo del Sauz (El Aserradero)", "OID": 95113 }, "geometry": { "type": "Point", "coordinates": [ -115.94805555999767, 32.004166670290289 ] } },
{ "type": "Feature", "properties": { "CVE_ENT": "02", "CVE_MUN": "001", "CVE_AGEB": "633-0", "CVE_LOC": "0480", "NOM_LOC": "Las Flores Nuevas", "OID": 95114 }, "geometry": { "type": "Point", "coordinates": [ -116.20166666999765, 31.947777780289766 ] } },
{ "type": "Feature", "properties": { "CVE_ENT": "02", "CVE_MUN": "001", "CVE_AGEB": "633-0", "CVE_LOC": "0481", "NOM_LOC": "Las Flores (Flores Viejas)", "OID": 95115 }, "geometry": { "type": "Point", "coordinates": [ -116.18694443999766, 31.944722220289687 ] } },
{ "type": "Feature", "properties": { "CVE_ENT": "02", "CVE_MUN": "001", "CVE_AGEB": "633-0", "CVE_LOC": "0517", "NOM_LOC": "La Hacienda", "OID": 95116 }, "geometry": { "type": "Point", "coordinates": [ -116.21499999999763, 31.935555560289593 ] } },
{ "type": "Feature", "properties": { "CVE_ENT": "02", "CVE_MUN": "001", "CVE_AGEB": "633-0", "CVE_LOC": "0664", "NOM_LOC": "Las Pilitas", "OID": 95117 }, "geometry": { "type": "Point", "coordinates": [ -116.053333329997685, 32.218611110292507 ] } },
{ "type": "Feature", "properties": { "CVE_ENT": "02", "CVE_MUN": "001", "CVE_AGEB": "633-0", "CVE_LOC": "0683", "NOM_LOC": "El Rayo", "OID": 95118 }, "geometry": { "type": "Point", "coordinates": [ -115.980277779997692, 31.979722220290064 ] } },
{ "type": "Feature", "properties": { "CVE_ENT": "02", "CVE_MUN": "001", "CVE_AGEB": "633-0", "CVE_LOC": "0701", "NOM_LOC": "Rodeo Cota", "OID": 95119 }, "geometry": { "type": "Point", "coordinates": [ -115.896666669997728, 32.03222222029062 ] } },
{ "type": "Feature", "properties": { "CVE_ENT": "02", "CVE_MUN": "001", "CVE_AGEB": "633-0", "CVE_LOC": "0779", "NOM_LOC": "San Juan de Dios", "OID": 95120 }, "geometry": { "type": "Point", "coordinates": [ -116.167499999997673, 32.133888890291608 ] } },
{ "type": "Feature", "properties": { "CVE_ENT": "02", "CVE_MUN": "001", "CVE_AGEB": "633-0", "CVE_LOC": "0813", "NOM_LOC": "El Topo", "OID": 95121 }, "geometry": { "type": "Point", "coordinates": [ -115.978055559997699, 32.23722222029263 ] } },
{ "type": "Feature", "properties": { "CVE_ENT": "02", "CVE_MUN": "001", "CVE_AGEB": "633-0", "CVE_LOC": "1204", "NOM_LOC": "La Botella", "OID": 95122 }, "geometry": { "type": "Point", "coordinates": [ -115.908888889997712, 31.933055560289606 ] } },
{ "type": "Feature", "properties": { "CVE_ENT": "02", "CVE_MUN": "001", "CVE_AGEB": "633-0", "CVE_LOC": "1227", "NOM_LOC": "La Calabaza", "OID": 95123 }, "geometry": { "type": "Point", "coordinates": [ -116.212777779997666, 32.106388890291377 ] } },
{ "type": "Feature", "properties": { "CVE_ENT": "02", "CVE_MUN": "001", "CVE_AGEB": "633-0", "CVE_LOC": "1299", "NOM_LOC": "El Coyote", "OID": 95124 }, "geometry": { "type": "Point", "coordinates": [ -116.132222219997658, 31.915833330289406 ] } },
{ "type": "Feature", "properties": { "CVE_ENT": "02", "CVE_MUN": "001", "CVE_AGEB": "633-0", "CVE_LOC": "1654", "NOM_LOC": "Poblado Puerta Trampa", "OID": 95125 }, "geometry": { "type": "Point", "coordinates": [ -116.203055559997651, 31.91333333028938 ] } },
{ "type": "Feature", "properties": { "CVE_ENT": "02", "CVE_MUN": "001", "CVE_AGEB": "633-0", "CVE_LOC": "1701", "NOM_LOC": "Rancho Viejo", "OID": 95126 }, "geometry": { "type": "Point", "coordinates": [ -115.828055559997708, 31.742777780287614 ] } },
{ "type": "Feature", "properties": { "CVE_ENT": "02", "CVE_MUN": "001", "CVE_AGEB": "633-0", "CVE_LOC": "1863", "NOM_LOC": "Santa Isabel Nueva", "OID": 95127 }, "geometry": { "type": "Point", "coordinates": [ -115.853888889997691, 31.876944440289009 ] } },
{ "type": "Feature", "properties": { "CVE_ENT": "02", "CVE_MUN": "001", "CVE_AGEB": "633-0", "CVE_LOC": "2036", "NOM_LOC": "El Alacrán", "OID": 95128 }, "geometry": { "type": "Point", "coordinates": [ -115.943055559997703, 31.868055560288923 ] } },
{ "type": "Feature", "properties": { "CVE_ENT": "02", "CVE_MUN": "001", "CVE_AGEB": "633-0", "CVE_LOC": "2041", "NOM_LOC": "La Víbora", "OID": 95129 }, "geometry": { "type": "Point", "coordinates": [ -115.893611109997693, 31.883333330289062 ] } },
{ "type": "Feature", "properties": { "CVE_ENT": "02", "CVE_MUN": "001", "CVE_AGEB": "633-0", "CVE_LOC": "2049", "NOM_LOC": "San Salvador de Gálvez", "OID": 95130 }, "geometry": { "type": "Point", "coordinates": [ -116.056388889997663, 31.834166670288578 ] } },
{ "type": "Feature", "properties": { "CVE_ENT": "02", "CVE_MUN": "001", "CVE_AGEB": "633-0", "CVE_LOC": "2063", "NOM_LOC": "La Tableta", "OID": 95131 }, "geometry": { "type": "Point", "coordinates": [ -115.854722219997711, 31.817222220288397 ] } },
{ "type": "Feature", "properties": { "CVE_ENT": "02", "CVE_MUN": "001", "CVE_AGEB": "633-0", "CVE_LOC": "3219", "NOM_LOC": "Pino Colorado", "OID": 95132 }, "geometry": { "type": "Point", "coordinates": [ -115.95749999999768, 31.877222220289003 ] } },
{ "type": "Feature", "properties": { "CVE_ENT": "02", "CVE_MUN": "001", "CVE_AGEB": "633-0", "CVE_LOC": "3298", "NOM_LOC": "El Campito", "OID": 95133 }, "geometry": { "type": "Point", "coordinates": [ -116.252499999997639, 31.991388890290178 ] } },
{ "type": "Feature", "properties": { "CVE_ENT": "02", "CVE_MUN": "001", "CVE_AGEB": "633-0", "CVE_LOC": "3372", "NOM_LOC": "Corral Viejo", "OID": 95134 }, "geometry": { "type": "Point", "coordinates": [ -115.942777779997684, 32.003055560290299 ] } },
{ "type": "Feature", "properties": { "CVE_ENT": "02", "CVE_MUN": "001", "CVE_AGEB": "633-0", "CVE_LOC": "3392", "NOM_LOC": "Esquer", "OID": 95135 }, "geometry": { "type": "Point", "coordinates": [ -116.077222219997651, 31.853611110288778 ] } },
{ "type": "Feature", "properties": { "CVE_ENT": "02", "CVE_MUN": "001", "CVE_AGEB": "633-0", "CVE_LOC": "3587", "NOM_LOC": "Familia Zamora", "OID": 95136 }, "geometry": { "type": "Point", "coordinates": [ -116.221944439997628, 31.932777780289602 ] } },
{ "type": "Feature", "properties": { "CVE_ENT": "02", "CVE_MUN": "001", "CVE_AGEB": "633-0", "CVE_LOC": "3993", "NOM_LOC": "Las Flores", "OID": 95137 }, "geometry": { "type": "Point", "coordinates": [ -116.21111110999766, 31.938888890289647 ] } },
{ "type": "Feature", "properties": { "CVE_ENT": "02", "CVE_MUN": "001", "CVE_AGEB": "633-0", "CVE_LOC": "4412", "NOM_LOC": "El Rincón", "OID": 95138 }, "geometry": { "type": "Point", "coordinates": [ -116.206388889997626, 31.963333330289899 ] } },
{ "type": "Feature", "properties": { "CVE_ENT": "02", "CVE_MUN": "001", "CVE_AGEB": "633-0", "CVE_LOC": "4631", "NOM_LOC": "Rodeo del Rey", "OID": 95139 }, "geometry": { "type": "Point", "coordinates": [ -115.92055555999768, 32.103611110291347 ] } },
{ "type": "Feature", "properties": { "CVE_ENT": "02", "CVE_MUN": "001", "CVE_AGEB": "633-0", "CVE_LOC": "4833", "NOM_LOC": "San Faustino", "OID": 95140 }, "geometry": { "type": "Point", "coordinates": [ -116.170555559997652, 32.216944440292458 ] } },
{ "type": "Feature", "properties": { "CVE_ENT": "02", "CVE_MUN": "001", "CVE_AGEB": "633-0", "CVE_LOC": "4835", "NOM_LOC": "La Esperanza (El Campito)", "OID": 95141 }, "geometry": { "type": "Point", "coordinates": [ -116.191111109997664, 32.232777780292643 ] } },
{ "type": "Feature", "properties": { "CVE_ENT": "02", "CVE_MUN": "001", "CVE_AGEB": "633-0", "CVE_LOC": "5079", "NOM_LOC": "Los Manzanos", "OID": 95142 }, "geometry": { "type": "Point", "coordinates": [ -116.077777779997675, 31.850000000288734 ] } },
{ "type": "Feature", "properties": { "CVE_ENT": "02", "CVE_MUN": "001", "CVE_AGEB": "635-A", "CVE_LOC": "4828", "NOM_LOC": "Las Margaritas Número Uno", "OID": 95143 }, "geometry": { "type": "Point", "coordinates": [ -116.020833329997686, 32.270555560293019 ] } },
{ "type": "Feature", "properties": { "CVE_ENT": "02", "CVE_MUN": "001", "CVE_AGEB": "635-A", "CVE_LOC": "4830", "NOM_LOC": "Los Lirios (Jasay)", "OID": 95144 }, "geometry": { "type": "Point", "coordinates": [ -116.033055559997663, 32.28388889029312 ] } },
{ "type": "Feature", "properties": { "CVE_ENT": "02", "CVE_MUN": "001", "CVE_AGEB": "636-4", "CVE_LOC": "0331", "NOM_LOC": "El Barril (La Roca) [Centro de Rehabilitación]", "OID": 95145 }, "geometry": { "type": "Point", "coordinates": [ -116.374722219997622, 31.918055560289417 ] } },
{ "type": "Feature", "properties": { "CVE_ENT": "02", "CVE_MUN": "001", "CVE_AGEB": "636-4", "CVE_LOC": "4668", "NOM_LOC": "Valle Redondo", "OID": 95146 }, "geometry": { "type": "Point", "coordinates": [ -116.456944439997613, 31.986111110290157 ] } },
{ "type": "Feature", "properties": { "CVE_ENT": "02", "CVE_MUN": "001", "CVE_AGEB": "637-9", "CVE_LOC": "0063", "NOM_LOC": "La Campana", "OID": 95147 }, "geometry": { "type": "Point", "coordinates": [ -116.263888889997645, 31.942777780289674 ] } },
{ "type": "Feature", "properties": { "CVE_ENT": "02", "CVE_MUN": "001", "CVE_AGEB": "637-9", "CVE_LOC": "0215", "NOM_LOC": "Sangre de Cristo", "OID": 95148 }, "geometry": { "type": "Point", "coordinates": [ -116.14444443999767, 31.873611110288984 ] } },
{ "type": "Feature", "properties": { "CVE_ENT": "02", "CVE_MUN": "001", "CVE_AGEB": "637-9", "CVE_LOC": "0333", "NOM_LOC": "El Brillante", "OID": 95149 }, "geometry": { "type": "Point", "coordinates": [ -116.253055559997634, 31.910277780289373 ] } },
{ "type": "Feature", "properties": { "CVE_ENT": "02", "CVE_MUN": "001", "CVE_AGEB": "637-9", "CVE_LOC": "0386", "NOM_LOC": "Ojos Negros", "OID": 95150 }, "geometry": { "type": "Point", "coordinates": [ -116.293611109997642, 31.960833330289873 ] } },
{ "type": "Feature", "properties": { "CVE_ENT": "02", "CVE_MUN": "001", "CVE_AGEB": "637-9", "CVE_LOC": "0516", "NOM_LOC": "Las Herraduras", "OID": 95151 }, "geometry": { "type": "Point", "coordinates": [ -116.18194443999765, 31.845833330288684 ] } },
{ "type": "Feature", "properties": { "CVE_ENT": "02", "CVE_MUN": "001", "CVE_AGEB": "637-9", "CVE_LOC": "0525", "NOM_LOC": "Rancho Jiménez", "OID": 95152 }, "geometry": { "type": "Point", "coordinates": [ -116.283055559997621, 31.965277780289927 ] } },
{ "type": "Feature", "properties": { "CVE_ENT": "02", "CVE_MUN": "001", "CVE_AGEB": "637-9", "CVE_LOC": "0526", "NOM_LOC": "Rancho Cardoso", "OID": 95153 }, "geometry": { "type": "Point", "coordinates": [ -116.27305555999763, 31.939444440289641 ] } },
{ "type": "Feature", "properties": { "CVE_ENT": "02", "CVE_MUN": "001", "CVE_AGEB": "637-9", "CVE_LOC": "0630", "NOM_LOC": "El Paraíso", "OID": 95154 }, "geometry": { "type": "Point", "coordinates": [ -116.276388889997634, 31.886111110289121 ] } },
{ "type": "Feature", "properties": { "CVE_ENT": "02", "CVE_MUN": "001", "CVE_AGEB": "637-9", "CVE_LOC": "1031", "NOM_LOC": "La Joya", "OID": 95155 }, "geometry": { "type": "Point", "coordinates": [ -116.248333329997621, 31.8883333302891 ] } },
{ "type": "Feature", "properties": { "CVE_ENT": "02", "CVE_MUN": "001", "CVE_AGEB": "637-9", "CVE_LOC": "1146", "NOM_LOC": "El Albur", "OID": 95156 }, "geometry": { "type": "Point", "coordinates": [ -116.251944439997629, 31.921944440289476 ] } },
{ "type": "Feature", "properties": { "CVE_ENT": "02", "CVE_MUN": "001", "CVE_AGEB": "637-9", "CVE_LOC": "1337", "NOM_LOC": "Las Delicias", "OID": 95157 }, "geometry": { "type": "Point", "coordinates": [ -116.276944439997621, 31.965277780289927 ] } },
{ "type": "Feature", "properties": { "CVE_ENT": "02", "CVE_MUN": "001", "CVE_AGEB": "637-9", "CVE_LOC": "1653", "NOM_LOC": "Puerta Blanca", "OID": 95158 }, "geometry": { "type": "Point", "coordinates": [ -116.281388889997629, 31.896111110289223 ] } },
{ "type": "Feature", "properties": { "CVE_ENT": "02", "CVE_MUN": "001", "CVE_AGEB": "637-9", "CVE_LOC": "1682", "NOM_LOC": "Rancho Hussong", "OID": 95159 }, "geometry": { "type": "Point", "coordinates": [ -116.271111109997634, 31.893333330289188 ] } },
{ "type": "Feature", "properties": { "CVE_ENT": "02", "CVE_MUN": "001", "CVE_AGEB": "637-9", "CVE_LOC": "2068", "NOM_LOC": "Rancho Ayón", "OID": 95160 }, "geometry": { "type": "Point", "coordinates": [ -116.237777779997629, 31.915833330289406 ] } },
{ "type": "Feature", "properties": { "CVE_ENT": "02", "CVE_MUN": "001", "CVE_AGEB": "637-9", "CVE_LOC": "2071", "NOM_LOC": "La Esperanza", "OID": 95161 }, "geometry": { "type": "Point", "coordinates": [ -116.254722219997632, 31.924444440289463 ] } },
{ "type": "Feature", "properties": { "CVE_ENT": "02", "CVE_MUN": "001", "CVE_AGEB": "637-9", "CVE_LOC": "2072", "NOM_LOC": "Pedro León (La Biznaga)", "OID": 95162 }, "geometry": { "type": "Point", "coordinates": [ -116.261388889997633, 31.936666670289604 ] } },
{ "type": "Feature", "properties": { "CVE_ENT": "02", "CVE_MUN": "001", "CVE_AGEB": "637-9", "CVE_LOC": "2073", "NOM_LOC": "Los Papalotes", "OID": 95163 }, "geometry": { "type": "Point", "coordinates": [ -116.258888889997621, 31.948333330289771 ] } },
{ "type": "Feature", "properties": { "CVE_ENT": "02", "CVE_MUN": "001", "CVE_AGEB": "637-9", "CVE_LOC": "2074", "NOM_LOC": "Rancho R2", "OID": 95164 }, "geometry": { "type": "Point", "coordinates": [ -116.276944439997621, 31.932500000289568 ] } },
{ "type": "Feature", "properties": { "CVE_ENT": "02", "CVE_MUN": "001", "CVE_AGEB": "637-9", "CVE_LOC": "2087", "NOM_LOC": "La Reata", "OID": 95165 }, "geometry": { "type": "Point", "coordinates": [ -116.271944439997625, 31.933055560289606 ] } },
{ "type": "Feature", "properties": { "CVE_ENT": "02", "CVE_MUN": "001", "CVE_AGEB": "637-9", "CVE_LOC": "2090", "NOM_LOC": "La Pila", "OID": 95166 }, "geometry": { "type": "Point", "coordinates": [ -116.29749999999764, 31.908333330289341 ] } },
{ "type": "Feature", "properties": { "CVE_ENT": "02", "CVE_MUN": "001", "CVE_AGEB": "637-9", "CVE_LOC": "2092", "NOM_LOC": "El Huatal", "OID": 95167 }, "geometry": { "type": "Point", "coordinates": [ -116.301944439997627, 31.920555560289468 ] } },
{ "type": "Feature", "properties": { "CVE_ENT": "02", "CVE_MUN": "001", "CVE_AGEB": "637-9", "CVE_LOC": "2101", "NOM_LOC": "Francisco Parma Uno", "OID": 95168 }, "geometry": { "type": "Point", "coordinates": [ -116.297777779997631, 31.946944440289716 ] } },
{ "type": "Feature", "properties": { "CVE_ENT": "02", "CVE_MUN": "001", "CVE_AGEB": "637-9", "CVE_LOC": "2104", "NOM_LOC": "San Fernando", "OID": 95169 }, "geometry": { "type": "Point", "coordinates": [ -116.246111109997628, 31.918888890289459 ] } },
{ "type": "Feature", "properties": { "CVE_ENT": "02", "CVE_MUN": "001", "CVE_AGEB": "637-9", "CVE_LOC": "2112", "NOM_LOC": "Azucena [Establo]", "OID": 95170 }, "geometry": { "type": "Point", "coordinates": [ -116.289444439997638, 31.898611110289234 ] } },
{ "type": "Feature", "properties": { "CVE_ENT": "02", "CVE_MUN": "001", "CVE_AGEB": "637-9", "CVE_LOC": "2116", "NOM_LOC": "Buena Vista", "OID": 95171 }, "geometry": { "type": "Point", "coordinates": [ -116.250833329997647, 31.926111110289551 ] } },
{ "type": "Feature", "properties": { "CVE_ENT": "02", "CVE_MUN": "001", "CVE_AGEB": "637-9", "CVE_LOC": "2679", "NOM_LOC": "Las Joyitas", "OID": 95172 }, "geometry": { "type": "Point", "coordinates": [ -116.25916666999764, 31.956388890289837 ] } },
{ "type": "Feature", "properties": { "CVE_ENT": "02", "CVE_MUN": "001", "CVE_AGEB": "637-9", "CVE_LOC": "2830", "NOM_LOC": "Rancho Ojos Negros", "OID": 95173 }, "geometry": { "type": "Point", "coordinates": [ -116.301666669997644, 31.913611110289374 ] } },
{ "type": "Feature", "properties": { "CVE_ENT": "02", "CVE_MUN": "001", "CVE_AGEB": "637-9", "CVE_LOC": "2954", "NOM_LOC": "Rancho Valladolid", "OID": 95174 }, "geometry": { "type": "Point", "coordinates": [ -116.246666669997623, 31.925833330289507 ] } },
{ "type": "Feature", "properties": { "CVE_ENT": "02", "CVE_MUN": "001", "CVE_AGEB": "637-9", "CVE_LOC": "2962", "NOM_LOC": "Rancho de Timoteo Llamas", "OID": 95175 }, "geometry": { "type": "Point", "coordinates": [ -116.31138888999763, 31.943611110289702 ] } },
{ "type": "Feature", "properties": { "CVE_ENT": "02", "CVE_MUN": "001", "CVE_AGEB": "637-9", "CVE_LOC": "2963", "NOM_LOC": "El Poste Número Veintiocho", "OID": 95176 }, "geometry": { "type": "Point", "coordinates": [ -116.26805555999762, 31.934444440289603 ] } },
{ "type": "Feature", "properties": { "CVE_ENT": "02", "CVE_MUN": "001", "CVE_AGEB": "637-9", "CVE_LOC": "2968", "NOM_LOC": "Los Casián", "OID": 95177 }, "geometry": { "type": "Point", "coordinates": [ -116.25416666999763, 31.907222220289306 ] } },
{ "type": "Feature", "properties": { "CVE_ENT": "02", "CVE_MUN": "001", "CVE_AGEB": "637-9", "CVE_LOC": "3331", "NOM_LOC": "Campo Palacios", "OID": 95178 }, "geometry": { "type": "Point", "coordinates": [ -116.225833329997641, 31.91416667028939 ] } },
{ "type": "Feature", "properties": { "CVE_ENT": "02", "CVE_MUN": "001", "CVE_AGEB": "637-9", "CVE_LOC": "3643", "NOM_LOC": "Miguel Candolfi (El Dieciocho)", "OID": 95179 }, "geometry": { "type": "Point", "coordinates": [ -116.29638888999763, 31.939444440289655 ] } },
{ "type": "Feature", "properties": { "CVE_ENT": "02", "CVE_MUN": "001", "CVE_AGEB": "637-9", "CVE_LOC": "3841", "NOM_LOC": "El Ranchito", "OID": 95180 }, "geometry": { "type": "Point", "coordinates": [ -116.276944439997621, 31.877500000288997 ] } },
{ "type": "Feature", "properties": { "CVE_ENT": "02", "CVE_MUN": "001", "CVE_AGEB": "637-9", "CVE_LOC": "3850", "NOM_LOC": "Rancho Alborada", "OID": 95181 }, "geometry": { "type": "Point", "coordinates": [ -116.261666669997624, 31.92305556028947 ] } },
{ "type": "Feature", "properties": { "CVE_ENT": "02", "CVE_MUN": "001", "CVE_AGEB": "637-9", "CVE_LOC": "3883", "NOM_LOC": "Rancho Dos B", "OID": 95182 }, "geometry": { "type": "Point", "coordinates": [ -116.290833329997639, 31.965277780289917 ] } },
{ "type": "Feature", "properties": { "CVE_ENT": "02", "CVE_MUN": "001", "CVE_AGEB": "637-9", "CVE_LOC": "4052", "NOM_LOC": "Rancho Pedroza", "OID": 95183 }, "geometry": { "type": "Point", "coordinates": [ -116.285555559997633, 31.922500000289467 ] } },
{ "type": "Feature", "properties": { "CVE_ENT": "02", "CVE_MUN": "001", "CVE_AGEB": "637-9", "CVE_LOC": "4062", "NOM_LOC": "Rodeo Viejo", "OID": 95184 }, "geometry": { "type": "Point", "coordinates": [ -116.236666669997646, 31.881944440289072 ] } },
{ "type": "Feature", "properties": { "CVE_ENT": "02", "CVE_MUN": "001", "CVE_AGEB": "637-9", "CVE_LOC": "4331", "NOM_LOC": "Belmonte", "OID": 95185 }, "geometry": { "type": "Point", "coordinates": [ -116.234722219997636, 31.908888890289354 ] } },
{ "type": "Feature", "properties": { "CVE_ENT": "02", "CVE_MUN": "001", "CVE_AGEB": "637-9", "CVE_LOC": "4405", "NOM_LOC": "El Catorce", "OID": 95186 }, "geometry": { "type": "Point", "coordinates": [ -116.239166669997644, 31.922500000289503 ] } },
{ "type": "Feature", "properties": { "CVE_ENT": "02", "CVE_MUN": "001", "CVE_AGEB": "637-9", "CVE_LOC": "4567", "NOM_LOC": "Rancho Favela", "OID": 95187 }, "geometry": { "type": "Point", "coordinates": [ -116.229166669997639, 31.910000000289379 ] } },
{ "type": "Feature", "properties": { "CVE_ENT": "02", "CVE_MUN": "001", "CVE_AGEB": "637-9", "CVE_LOC": "4579", "NOM_LOC": "Los Pirules", "OID": 95188 }, "geometry": { "type": "Point", "coordinates": [ -116.255277779997613, 31.911666670289375 ] } },
{ "type": "Feature", "properties": { "CVE_ENT": "02", "CVE_MUN": "001", "CVE_AGEB": "637-9", "CVE_LOC": "4581", "NOM_LOC": "Los Rosales", "OID": 95189 }, "geometry": { "type": "Point", "coordinates": [ -116.275555559997642, 31.925277780289498 ] } },
{ "type": "Feature", "properties": { "CVE_ENT": "02", "CVE_MUN": "001", "CVE_AGEB": "637-9", "CVE_LOC": "4594", "NOM_LOC": "Rancho Velarde", "OID": 95190 }, "geometry": { "type": "Point", "coordinates": [ -116.262499999997644, 31.916944440289413 ] } },
{ "type": "Feature", "properties": { "CVE_ENT": "02", "CVE_MUN": "001", "CVE_AGEB": "637-9", "CVE_LOC": "4681", "NOM_LOC": "Ninguno", "OID": 95191 }, "geometry": { "type": "Point", "coordinates": [ -116.297777779997631, 31.941944440289653 ] } },
{ "type": "Feature", "properties": { "CVE_ENT": "02", "CVE_MUN": "001", "CVE_AGEB": "637-9", "CVE_LOC": "4683", "NOM_LOC": "Rancho Jiménez", "OID": 95192 }, "geometry": { "type": "Point", "coordinates": [ -116.288333329997627, 31.913888890289407 ] } },
{ "type": "Feature", "properties": { "CVE_ENT": "02", "CVE_MUN": "001", "CVE_AGEB": "637-9", "CVE_LOC": "4684", "NOM_LOC": "Ninguno", "OID": 95193 }, "geometry": { "type": "Point", "coordinates": [ -116.286388889997625, 31.913055560289404 ] } },
{ "type": "Feature", "properties": { "CVE_ENT": "02", "CVE_MUN": "001", "CVE_AGEB": "637-9", "CVE_LOC": "4688", "NOM_LOC": "La Esperanza (Doña Chonita)", "OID": 95194 }, "geometry": { "type": "Point", "coordinates": [ -116.308611109997642, 31.950555560289796 ] } },
{ "type": "Feature", "properties": { "CVE_ENT": "02", "CVE_MUN": "001", "CVE_AGEB": "637-9", "CVE_LOC": "4689", "NOM_LOC": "El Papalote", "OID": 95195 }, "geometry": { "type": "Point", "coordinates": [ -116.25916666999764, 31.875555560289001 ] } },
{ "type": "Feature", "properties": { "CVE_ENT": "02", "CVE_MUN": "001", "CVE_AGEB": "637-9", "CVE_LOC": "4691", "NOM_LOC": "El Progreso (Capitán Vidrio)", "OID": 95196 }, "geometry": { "type": "Point", "coordinates": [ -116.27722221999764, 31.917500000289415 ] } },
{ "type": "Feature", "properties": { "CVE_ENT": "02", "CVE_MUN": "001", "CVE_AGEB": "637-9", "CVE_LOC": "4692", "NOM_LOC": "Ninguno", "OID": 95197 }, "geometry": { "type": "Point", "coordinates": [ -116.234166669997634, 31.927777780289535 ] } },
{ "type": "Feature", "properties": { "CVE_ENT": "02", "CVE_MUN": "001", "CVE_AGEB": "637-9", "CVE_LOC": "4693", "NOM_LOC": "Ninguno", "OID": 95198 }, "geometry": { "type": "Point", "coordinates": [ -116.25916666999764, 31.910277780289348 ] } },
{ "type": "Feature", "properties": { "CVE_ENT": "02", "CVE_MUN": "001", "CVE_AGEB": "637-9", "CVE_LOC": "4694", "NOM_LOC": "Ninguno", "OID": 95199 }, "geometry": { "type": "Point", "coordinates": [ -116.254444439997641, 31.910000000289365 ] } },
{ "type": "Feature", "properties": { "CVE_ENT": "02", "CVE_MUN": "001", "CVE_AGEB": "637-9", "CVE_LOC": "4699", "NOM_LOC": "Los Eucaliptos", "OID": 95200 }, "geometry": { "type": "Point", "coordinates": [ -116.255555559997646, 31.907222220289306 ] } },
{ "type": "Feature", "properties": { "CVE_ENT": "02", "CVE_MUN": "001", "CVE_AGEB": "637-9", "CVE_LOC": "4702", "NOM_LOC": "Fraccionamiento del Valle", "OID": 95201 },